route_id,unique_id,service_start_date,update_origin,train_platform,working_time_arrival,working_time_departure,planned_time_arrival,planned_time_departure,actual_arrival_time,actual_departure_time,platform,is_delayed_arrival,is_delayed_departure,duration (min),TiplocCode,StationName,Latitude,Longitude,depart_delay(min),arrive_delay(min)
202407037144581,G44581,2024-07-03,Darwin,GLOSTER,1900-01-01 19:22:00,1900-01-01 19:28:00,19:21:00,19:28:00,1900-01-01 19:32:00,1900-01-01 19:33:00,1,True,True,6.0,GLOSTER,Gloucester,51.865556868114204,-2.238487569393147,5.0,10.0
202407036707715,C07715,2024-07-03,Darwin,LADYBHL,1900-01-01 19:24:00,1900-01-01 19:35:30,,,1900-01-01 19:33:00,1900-01-01 19:34:00,,True,True,11.5,,LADYBHL,,,,9.0
202407037154103,G54103,2024-07-03,Darwin,CRAWLEY,1900-01-01 19:26:30,1900-01-01 19:27:30,19:27:00,19:27:00,1900-01-01 19:35:00,1900-01-01 19:35:00,2,True,True,1.0,CRAWLEY,Crawley,51.112212087921925,-0.1866728926192064,7.5,8.5
202407037154103,G54103,2024-07-03,Darwin,IFIELD,1900-01-01 19:29:30,1900-01-01 19:30:00,19:30:00,19:30:00,1900-01-01 19:37:00,1900-01-01 19:38:00,2,True,True,0.5,IFIELD,Ifield,51.1156211846563,-0.21477211260232246,8.0,7.5
202407037154103,G54103,2024-07-03,Darwin,FAYGATE,1900-01-01 19:33:30,1900-01-01 19:34:00,19:34:00,19:34:00,1900-01-01 19:41:00,1900-01-01 19:42:00,2,True,True,0.5,FAYGATE,Faygate,51.095888923378574,-0.2630186258420345,8.0,7.5
202407037154103,G54103,2024-07-03,Darwin,LHVN,1900-01-01 19:37:30,1900-01-01 19:38:30,19:38:00,19:38:00,1900-01-01 19:45:00,1900-01-01 19:46:00,2,True,True,1.0,LHVN,Littlehaven,51.07974951778975,-0.30798049031881236,7.5,7.5
202407038502732,U02732,2024-07-03,Darwin,GRVRBGJ,1900-01-01 19:48:00,1900-01-01 19:56:00,,,1900-01-01 19:57:00,1900-01-01 19:58:00,,True,True,8.0,,GRVRBGJ,,,2.0,9.0
202407038084230,P84230,2024-07-03,Darwin,BSDN,1900-01-01 18:26:30,1900-01-01 18:29:00,,,1900-01-01 19:35:00,1900-01-01 19:36:00,1,True,True,2.5,BSDN,Bearsden,55.91712785837148,-4.332019995860379,67.0,68.5
202407038084230,P84230,2024-07-03,Darwin,ANSL,1900-01-01 18:33:30,1900-01-01 18:34:00,,,1900-01-01 19:41:00,1900-01-01 19:41:00,1,True,True,0.5,ANSL,Anniesland,55.88934879502829,-4.321956697888183,67.0,67.5
202407037132972,G32972,2024-07-03,Darwin,SPRB,1900-01-01 19:16:30,1900-01-01 19:21:00,,,1900-01-01 19:36:00,1900-01-01 19:37:00,,True,True,4.5,,SPRB,,,16.0,19.5
202407036717213,C17213,2024-07-03,Darwin,HARLSDN,1900-01-01 18:40:00,1900-01-01 18:40:30,18:40:00,18:40:00,1900-01-01 19:34:00,1900-01-01 19:34:00,1,True,True,0.5,HARLSDN,Harlesden,51.536287440601605,-0.25766753012443244,53.5,54.0
202407036717213,C17213,2024-07-03,Darwin,WLSDNJL,1900-01-01 18:42:00,1900-01-01 18:42:30,18:42:00,18:42:00,1900-01-01 19:36:00,1900-01-01 19:36:00,1,True,True,0.5,WLSDNJL,Willesden Junction Low Level,51.53202614197503,-0.2432682798041903,53.5,54.0
202407036717213,C17213,2024-07-03,Darwin,KENSLG,1900-01-01 18:44:30,1900-01-01 18:45:00,18:45:00,18:45:00,1900-01-01 19:38:00,1900-01-01 19:39:00,1,True,True,0.5,KENSLG,Kensal Green,51.53053850642573,-0.22508762025614396,54.0,53.5
202407036717213,C17213,2024-07-03,Darwin,QPRK,1900-01-01 18:48:30,1900-01-01 18:50:00,18:49:00,18:50:00,1900-01-01 19:42:00,1900-01-01 19:43:00,2,True,True,1.5,QPRK,Queens Park (London),51.53396447272617,-0.20498481179665223,53.0,53.5
202407037133117,G33117,2024-07-03,Darwin,MNCRPIC,1900-01-01 19:35:00,1900-01-01 19:39:00,,,1900-01-01 19:37:00,1900-01-01 19:38:00,3,True,True,4.0,MNCRPIC,Manchester Piccadilly,53.47735978497863,-2.230909854448797,,2.0
202407037131880,G31880,2024-07-03,Darwin,PRSTSHL,1900-01-01 19:14:00,1900-01-01 19:44:00,,,1900-01-01 19:34:00,1900-01-01 19:35:00,,True,True,30.0,,PRSTSHL,,,,20.0
202407036731517,C31517,2024-07-03,Darwin,CREWE,1900-01-01 20:43:00,1900-01-01 20:45:00,20:43:00,20:45:00,1900-01-01 20:59:00,1900-01-01 21:00:00,6,True,True,2.0,CREWE,Crewe,53.089623240390374,-2.4329687813213394,15.0,16.0
202407036731517,C31517,2024-07-03,Darwin,RUNCORN,1900-01-01 21:04:00,1900-01-01 21:05:30,21:03:00,21:04:00,1900-01-01 21:15:00,1900-01-01 21:16:00,2,True,True,1.5,RUNCORN,Runcorn,53.338693113242165,-2.7392510767956444,10.5,11.0
202407037133213,G33213,2024-07-03,Darwin,CARLNEC,1900-01-01 19:10:00,1900-01-01 19:13:00,,,1900-01-01 19:35:00,1900-01-01 19:36:00,,True,True,3.0,,CARLNEC,,,23.0,25.0
202407038629754,V29754,2024-07-03,Darwin,BRST720,1900-01-01 18:44:00,1900-01-01 18:48:00,,,1900-01-01 19:39:00,1900-01-01 19:40:00,,True,True,4.0,,BRST720,,,52.0,55.0
202407036738299,C38299,2024-07-03,Darwin,WLSDNJL,1900-01-01 19:01:30,1900-01-01 19:02:00,19:02:00,19:02:00,1900-01-01 19:32:00,1900-01-01 19:32:00,3,True,True,0.5,WLSDNJL,Willesden Junction Low Level,51.53202614197503,-0.2432682798041903,30.0,30.5
202407036738299,C38299,2024-07-03,Darwin,HARLSDN,1900-01-01 19:03:30,1900-01-01 19:04:00,19:04:00,19:04:00,1900-01-01 19:34:00,1900-01-01 19:34:00,2,True,True,0.5,HARLSDN,Harlesden,51.536287440601605,-0.25766753012443244,30.0,30.5
202407036714704,C14704,2024-07-03,Darwin,BARKING,1900-01-01 19:37:00,1900-01-01 19:38:00,,,1900-01-01 20:06:00,1900-01-01 20:07:00,5,True,True,1.0,BARKING,Barking,51.53949301544078,0.08090246821316284,29.0,29.0
202407038088761,P88761,2024-07-03,Darwin,EGRNSID,1900-01-01 19:27:00,1900-01-01 19:32:00,,,1900-01-01 19:34:00,1900-01-01 19:35:00,,True,True,5.0,,EGRNSID,,,3.0,7.0
202407037671492,L71492,2024-07-03,Darwin,PRITLWL,1900-01-01 18:39:00,1900-01-01 18:39:30,,,1900-01-01 19:34:00,1900-01-01 19:34:00,1,True,True,0.5,PRITLWL,Prittlewell,51.550685604982384,0.7106760698219792,54.5,55.0
202407037671492,L71492,2024-07-03,Darwin,STHEAIR,1900-01-01 18:42:00,1900-01-01 18:42:30,,,1900-01-01 19:37:00,1900-01-01 19:37:00,1,True,True,0.5,STHEAIR,Southend Airport,51.56866789503702,0.7050497914856464,54.5,55.0
202407037671492,L71492,2024-07-03,Darwin,ROCHFD,1900-01-01 18:44:00,1900-01-01 18:44:30,,,1900-01-01 19:39:00,1900-01-01 19:39:00,1,True,True,0.5,ROCHFD,Rochford,51.58172698307757,0.7023032827324859,54.5,55.0
202407037671492,L71492,2024-07-03,Darwin,HOCKLEY,1900-01-01 18:48:00,1900-01-01 18:48:30,,,1900-01-01 19:43:00,1900-01-01 19:43:00,1,True,True,0.5,HOCKLEY,Hockley,51.60355451510355,0.6590011304849506,54.5,55.0
202407037671492,L71492,2024-07-03,Darwin,RAYLEGH,1900-01-01 18:52:00,1900-01-01 18:52:30,,,1900-01-01 19:47:00,1900-01-01 19:47:00,,True,True,0.5,RAYLEGH,Rayleigh,51.589291562958465,0.5999834139271301,54.5,55.0
202407037671492,L71492,2024-07-03,Darwin,WIKFORD,1900-01-01 18:57:00,1900-01-01 18:57:30,,,1900-01-01 19:52:00,1900-01-01 19:52:00,3,True,True,0.5,WIKFORD,Wickford,51.615021436762724,0.5191850855886269,54.5,55.0
202407037671492,L71492,2024-07-03,Darwin,BILERCY,1900-01-01 19:02:30,1900-01-01 19:03:00,,,1900-01-01 19:57:00,1900-01-01 19:58:00,,True,True,0.5,BILERCY,Billericay,51.62888195821399,0.4186296631980501,55.0,54.5
202407037133087,G33087,2024-07-03,Darwin,PRSTSHL,1900-01-01 18:54:00,1900-01-01 18:58:00,,,1900-01-01 19:34:00,1900-01-01 19:35:00,,True,True,4.0,,PRSTSHL,,,37.0,40.0
202407037133087,G33087,2024-07-03,Darwin,PRST,1900-01-01 19:00:00,1900-01-01 19:04:00,,,1900-01-01 19:37:00,1900-01-01 19:38:00,RES,True,True,4.0,PRST,Preston,53.756857773077485,-2.7081278044333805,34.0,37.0
202407037671493,L71493,2024-07-03,Darwin,BILERCY,1900-01-01 19:26:30,1900-01-01 19:27:30,,,1900-01-01 19:38:00,1900-01-01 19:39:00,,True,True,1.0,BILERCY,Billericay,51.62888195821399,0.4186296631980501,11.5,11.5
202407037671493,L71493,2024-07-03,Darwin,WIKFORD,1900-01-01 19:33:30,1900-01-01 19:34:30,,,1900-01-01 19:44:00,1900-01-01 19:45:00,2,True,True,1.0,WIKFORD,Wickford,51.615021436762724,0.5191850855886269,10.5,10.5
202407037671493,L71493,2024-07-03,Darwin,RAYLEGH,1900-01-01 19:39:00,1900-01-01 19:39:30,,,1900-01-01 19:50:00,1900-01-01 19:50:00,,True,True,0.5,RAYLEGH,Rayleigh,51.589291562958465,0.5999834139271301,10.5,11.0
202407037671493,L71493,2024-07-03,Darwin,HOCKLEY,1900-01-01 19:43:00,1900-01-01 19:43:30,,,1900-01-01 19:54:00,1900-01-01 19:54:00,2,True,True,0.5,HOCKLEY,Hockley,51.60355451510355,0.6590011304849506,10.5,11.0
202407037671493,L71493,2024-07-03,Darwin,ROCHFD,1900-01-01 19:46:30,1900-01-01 19:47:00,,,1900-01-01 19:57:00,1900-01-01 19:58:00,2,True,True,0.5,ROCHFD,Rochford,51.58172698307757,0.7023032827324859,11.0,10.5
202407037671493,L71493,2024-07-03,Darwin,STHEAIR,1900-01-01 19:49:00,1900-01-01 19:49:30,,,1900-01-01 20:00:00,1900-01-01 20:00:00,2,True,True,0.5,STHEAIR,Southend Airport,51.56866789503702,0.7050497914856464,10.5,11.0
202407037671493,L71493,2024-07-03,Darwin,PRITLWL,1900-01-01 19:52:00,1900-01-01 19:52:30,,,1900-01-01 20:03:00,1900-01-01 20:03:00,2,True,True,0.5,PRITLWL,Prittlewell,51.550685604982384,0.7106760698219792,10.5,11.0
202407036737306,C37306,2024-07-03,Darwin,WLSDNJL,1900-01-01 18:20:00,1900-01-01 18:20:30,18:20:00,18:20:00,1900-01-01 19:32:00,1900-01-01 19:32:00,3,True,True,0.5,WLSDNJL,Willesden Junction Low Level,51.53202614197503,-0.2432682798041903,71.5,72.0
202407036737306,C37306,2024-07-03,Darwin,HARLSDN,1900-01-01 18:22:00,1900-01-01 18:22:30,18:22:00,18:22:00,1900-01-01 19:34:00,1900-01-01 19:34:00,2,True,True,0.5,HARLSDN,Harlesden,51.536287440601605,-0.25766753012443244,71.5,72.0
202407037143573,G43573,2024-07-03,Darwin,REDGWJN,1900-01-01 17:50:00,1900-01-01 17:57:00,,,1900-01-01 19:34:00,1900-01-01 19:35:00,,True,True,7.0,,REDGWJN,,,98.0,104.0
202407037143573,G43573,2024-07-03,Darwin,RDNGTCC,1900-01-01 17:58:30,1900-01-01 18:03:30,,,1900-01-01 19:36:00,1900-01-01 19:37:00,,True,True,5.0,,RDNGTCC,,,93.5,97.5
202407038329433,S29433,2024-07-03,Darwin,SANDH,1900-01-01 18:35:00,1900-01-01 18:35:30,,,1900-01-01 19:32:00,1900-01-01 19:32:00,2,True,True,0.5,SANDH,Sandhills,53.429935081608164,-2.991490178741465,56.5,57.0
202407038329433,S29433,2024-07-03,Darwin,BNKHALL,1900-01-01 18:37:30,1900-01-01 18:38:00,,,1900-01-01 19:34:00,1900-01-01 19:34:00,2,True,True,0.5,BNKHALL,Bank Hall,53.437491755742315,-2.987511327433023,56.0,56.5
202407038329433,S29433,2024-07-03,Darwin,BOOTLOR,1900-01-01 18:39:30,1900-01-01 18:40:00,,,1900-01-01 19:36:00,1900-01-01 19:36:00,2,True,True,0.5,BOOTLOR,Bootle Oriel Road,53.44661911357763,-2.9957333207386045,56.0,56.5
202407038329433,S29433,2024-07-03,Darwin,BOOTLNS,1900-01-01 18:41:00,1900-01-01 18:41:30,,,1900-01-01 19:37:00,1900-01-01 19:38:00,2,True,True,0.5,BOOTLNS,Bootle New Strand,53.4533869647025,-2.9947471688992158,56.5,56.0
202407038329433,S29433,2024-07-03,Darwin,SFRTHAL,1900-01-01 18:43:00,1900-01-01 18:43:30,,,1900-01-01 19:39:00,1900-01-01 19:40:00,2,True,True,0.5,SFRTHAL,Seaforth & Litherland,53.46626682616326,-3.005623169133688,56.5,56.0
202407038329433,S29433,2024-07-03,Darwin,WLOO,1900-01-01 18:45:30,1900-01-01 18:46:00,,,1900-01-01 19:41:00,1900-01-01 19:42:00,2,True,True,0.5,WLOO,Waterloo (Merseyside),53.474951567944515,-3.0255360913399887,56.0,55.5
202407038329433,S29433,2024-07-03,Darwin,BLNDLAC,1900-01-01 18:48:00,1900-01-01 18:48:30,,,1900-01-01 19:44:00,1900-01-01 19:44:00,2,True,True,0.5,BLNDLAC,Blundellsands & Crosby,53.48768182847913,-3.0398596991067945,55.5,56.0
202407038329433,S29433,2024-07-03,Darwin,HALLRD,1900-01-01 18:50:00,1900-01-01 18:50:30,,,1900-01-01 19:45:00,1900-01-01 19:46:00,2,True,True,0.5,HALLRD,Hall Road,53.49748416724681,-3.0496269695051517,55.5,55.0
202407038329433,S29433,2024-07-03,Darwin,HITN,1900-01-01 18:53:30,1900-01-01 18:54:00,,,1900-01-01 19:48:00,1900-01-01 19:49:00,2,True,True,0.5,HITN,Hightown,53.52510418910259,-3.057067868909308,55.0,54.5
202407038329433,S29433,2024-07-03,Darwin,FORMBY,1900-01-01 18:57:00,1900-01-01 18:57:30,,,1900-01-01 19:51:00,1900-01-01 19:52:00,2,True,True,0.5,FORMBY,Formby,53.553475513157686,-3.070907616375281,54.5,54.0
202407038329433,S29433,2024-07-03,Darwin,FRSHFLD,1900-01-01 18:59:00,1900-01-01 18:59:30,,,1900-01-01 19:53:00,1900-01-01 19:54:00,2,True,True,0.5,FRSHFLD,Freshfield,53.566051541948404,-3.0718293519764046,54.5,54.0
202407038329433,S29433,2024-07-03,Darwin,AINSDAL,1900-01-01 19:03:00,1900-01-01 19:03:30,,,1900-01-01 19:57:00,1900-01-01 19:57:00,2,True,True,0.5,AINSDAL,Ainsdale,53.60203065576637,-3.0426519324686083,53.5,54.0
202407038329433,S29433,2024-07-03,Darwin,HILLSID,1900-01-01 19:06:00,1900-01-01 19:07:00,,,1900-01-01 19:59:00,1900-01-01 20:00:00,2,True,True,1.0,HILLSID,Hillside,53.62210450099239,-3.0247163010758444,53.0,53.0
202407038329433,S29433,2024-07-03,Darwin,BKDLE,1900-01-01 19:10:30,1900-01-01 19:11:00,,,1900-01-01 20:02:00,1900-01-01 20:02:00,2,True,True,0.5,BKDLE,Birkdale,53.63404798330768,-3.014449533056303,51.0,51.5
202407036746965,C46965,2024-07-03,Darwin,BRWCKUT,1900-01-01 19:48:30,1900-01-01 19:57:00,,,1900-01-01 20:11:00,1900-01-01 20:12:00,1,True,True,8.5,BRWCKUT,Berwick-upon-Tweed,55.77433576621144,-2.010973284034733,15.0,22.5
202407036746965,C46965,2024-07-03,Darwin,NWCSTLE,1900-01-01 20:47:00,1900-01-01 21:00:00,,,1900-01-01 20:53:00,1900-01-01 20:54:00,3,True,True,13.0,NWCSTLE,Newcastle,54.968400242540895,-1.617279782459984,,6.0
202407037131878,G31878,2024-07-03,Darwin,PRSTSHL,1900-01-01 18:22:00,1900-01-01 18:43:00,,,1900-01-01 19:34:00,1900-01-01 19:35:00,,True,True,21.0,,PRSTSHL,,,52.0,72.0
202407038090832,P90832,2024-07-03,Darwin,WLSDJHL,1900-01-01 19:27:00,1900-01-01 19:28:00,19:27:00,19:28:00,1900-01-01 19:35:00,1900-01-01 19:36:00,4,True,True,1.0,WLSDJHL,Willesden Junction,51.532494914568055,-0.24454784781804792,8.0,8.0
202407038090832,P90832,2024-07-03,Darwin,KENR,1900-01-01 19:30:00,1900-01-01 19:30:30,19:30:00,19:30:00,1900-01-01 19:38:00,1900-01-01 19:38:00,2,True,True,0.5,KENR,Kensal Rise,51.53455230585161,-0.21995707167995113,7.5,8.0
202407038090832,P90832,2024-07-03,Darwin,BRBYPK,1900-01-01 19:32:00,1900-01-01 19:32:30,19:32:00,19:32:00,1900-01-01 19:40:00,1900-01-01 19:40:00,2,True,True,0.5,BRBYPK,Brondesbury Park,51.54069742328615,-0.2101276207238472,7.5,8.0
202407038090832,P90832,2024-07-03,Darwin,BRBY,1900-01-01 19:33:30,1900-01-01 19:34:00,19:34:00,19:34:00,1900-01-01 19:41:00,1900-01-01 19:42:00,2,True,True,0.5,BRBY,Brondesbury,51.545163994661436,-0.2023086898937502,8.0,7.5
202407038090832,P90832,2024-07-03,Darwin,WHMDSTD,1900-01-01 19:35:00,1900-01-01 19:36:00,19:35:00,19:36:00,1900-01-01 19:43:00,1900-01-01 19:44:00,2,True,True,1.0,WHMDSTD,West Hampstead,51.547465926432764,-0.19118455380467086,8.0,8.0
202407038090832,P90832,2024-07-03,Darwin,FNCHLYR,1900-01-01 19:37:00,1900-01-01 19:37:30,19:37:00,19:37:00,1900-01-01 19:45:00,1900-01-01 19:45:00,2,True,True,0.5,FNCHLYR,Finchley Road & Frognal,51.55026416695094,-0.18314055684167826,7.5,8.0
202407038090832,P90832,2024-07-03,Darwin,HMPSTDH,1900-01-01 19:39:30,1900-01-01 19:40:00,19:40:00,19:40:00,1900-01-01 19:47:00,1900-01-01 19:48:00,2,True,True,0.5,HMPSTDH,Hampstead Heath,51.555208482982515,-0.16570538005671365,8.0,7.5
202407038090832,P90832,2024-07-03,Darwin,GOSPLOK,1900-01-01 19:42:00,1900-01-01 19:43:30,19:42:00,19:43:00,1900-01-01 19:50:00,1900-01-01 19:51:00,2,True,True,1.5,GOSPLOK,Gospel Oak,51.55533373728611,-0.15077014382967097,7.5,8.0
202407038090832,P90832,2024-07-03,Darwin,KNTSHTW,1900-01-01 19:45:00,1900-01-01 19:45:30,19:45:00,19:45:00,1900-01-01 19:52:00,1900-01-01 19:53:00,2,True,True,0.5,KNTSHTW,Kentish Town West,51.54654613974292,-0.14665547365130868,7.5,7.0
202407038090832,P90832,2024-07-03,Darwin,CMDNRD,1900-01-01 19:47:30,1900-01-01 19:48:30,19:48:00,19:48:00,1900-01-01 19:55:00,1900-01-01 19:55:00,2,True,True,1.0,CMDNRD,Camden Road,51.5417890888924,-0.13870085834982124,6.5,7.5
202407038090832,P90832,2024-07-03,Darwin,CLDNNRB,1900-01-01 19:51:00,1900-01-01 19:51:30,19:51:00,19:51:00,1900-01-01 19:58:00,1900-01-01 19:58:00,3,True,True,0.5,CLDNNRB,Caledonian Road & Barnsbury,51.543039097216564,-0.11672920717287015,6.5,7.0
202407038090832,P90832,2024-07-03,Darwin,HIGHBYA,1900-01-01 19:53:00,1900-01-01 19:54:30,19:53:00,19:54:00,1900-01-01 20:00:00,1900-01-01 20:01:00,8,True,True,1.5,HIGHBYA,Highbury & Islington,51.546085592007486,-0.10376741322515147,6.5,7.0
202407038090832,P90832,2024-07-03,Darwin,CNNB,1900-01-01 19:55:30,1900-01-01 19:56:00,19:56:00,19:56:00,1900-01-01 20:02:00,1900-01-01 20:02:00,4,True,True,0.5,CNNB,Canonbury,51.54873054933367,-0.09219088726286666,6.0,6.5
202407038090832,P90832,2024-07-03,Darwin,DALSKLD,1900-01-01 19:58:00,1900-01-01 19:59:00,19:58:00,19:59:00,1900-01-01 20:04:00,1900-01-01 20:05:00,2,True,True,1.0,DALSKLD,Dalston Kingsland,51.54814649530995,-0.07570078484534909,6.0,6.0
202407038090832,P90832,2024-07-03,Darwin,HACKNYC,1900-01-01 20:00:30,1900-01-01 20:01:30,20:01:00,20:01:00,1900-01-01 20:07:00,1900-01-01 20:07:00,2,True,True,1.0,HACKNYC,Hackney Central,51.547103249583515,-0.05605757310182101,5.5,6.5
202407038090832,P90832,2024-07-03,Darwin,HOMRTON,1900-01-01 20:03:00,1900-01-01 20:04:00,20:03:00,20:04:00,1900-01-01 20:09:00,1900-01-01 20:10:00,2,True,True,1.0,HOMRTON,Homerton,51.54701036447641,-0.042359794129630535,6.0,6.0
202407038090832,P90832,2024-07-03,Darwin,HACKNYW,1900-01-01 20:06:00,1900-01-01 20:06:30,20:06:00,20:06:00,1900-01-01 20:12:00,1900-01-01 20:12:00,2,True,True,0.5,HACKNYW,Hackney Wick,51.543408769885005,-0.024919814824000037,5.5,6.0
202407037133130,G33130,2024-07-03,Darwin,SPRB,1900-01-01 18:08:30,1900-01-01 18:13:00,,,1900-01-01 19:32:00,1900-01-01 19:33:00,,True,True,4.5,,SPRB,,,80.0,83.5
202407037645856,L45856,2024-07-03,Darwin,CARDBKY,1900-01-01 18:08:00,1900-01-01 18:41:00,,,1900-01-01 19:34:00,1900-01-01 19:35:00,,True,True,33.0,,CARDBKY,,,54.0,86.0
202407037667747,L67747,2024-07-03,Darwin,HRLWTWN,1900-01-01 19:31:00,1900-01-01 19:32:00,19:31:00,19:32:00,1900-01-01 19:39:00,1900-01-01 19:40:00,2,True,True,1.0,HRLWTWN,Harlow Town,51.781068649999476,0.09513183659252805,8.0,8.0
202407037667747,L67747,2024-07-03,Darwin,TTNHMHL,1900-01-01 19:47:30,1900-01-01 19:48:30,19:48:00,19:48:00,1900-01-01 19:54:00,1900-01-01 19:55:00,3,True,True,1.0,TTNHMHL,Tottenham Hale,51.58830814602769,-0.059929144588349484,6.5,6.5
202407038098821,P98821,2024-07-03,Darwin,RAMSUSW,1900-01-01 19:30:00,1900-01-01 20:08:00,,,1900-01-01 19:36:00,1900-01-01 19:37:00,,True,True,38.0,,RAMSUSW,,,,6.0
202407038098979,P98979,2024-07-03,Darwin,RAMSDRW,1900-01-01 19:22:00,1900-01-01 19:31:00,,,1900-01-01 19:36:00,1900-01-01 19:37:00,,True,True,9.0,,RAMSDRW,,,6.0,14.0
202407037147934,G47934,2024-07-03,Darwin,ALEXNDP,1900-01-01 19:44:30,1900-01-01 19:45:00,,,1900-01-01 19:50:00,1900-01-01 19:50:00,1,True,True,0.5,ALEXNDP,Alexandra Palace,51.59792229995968,-0.12023517728272679,5.0,5.5
202407038099747,P99747,2024-07-03,Darwin,CNTBW1,1900-01-01 18:06:00,1900-01-01 18:11:00,,,1900-01-01 19:34:00,1900-01-01 19:35:00,,True,True,5.0,,CNTBW1,,,84.0,88.0
202407038099747,P99747,2024-07-03,Darwin,CNTBWGL,1900-01-01 18:13:00,1900-01-01 18:26:00,,,1900-01-01 19:37:00,1900-01-01 19:38:00,,True,True,13.0,,CNTBWGL,,,72.0,84.0
202407037143644,G43644,2024-07-03,Darwin,WEYMJS,1900-01-01 18:53:00,1900-01-01 18:56:00,,,1900-01-01 19:35:00,1900-01-01 19:36:00,,True,True,3.0,,WEYMJS,,,40.0,42.0
202407038088682,P88682,2024-07-03,Darwin,HORS410,1900-01-01 18:57:00,1900-01-01 19:02:00,,,1900-01-01 19:34:00,1900-01-01 19:35:00,,True,True,5.0,,HORS410,,,33.0,37.0
202407038088682,P88682,2024-07-03,Darwin,HORSHAM,1900-01-01 19:04:00,1900-01-01 19:04:00,,,1900-01-01 19:37:00,1900-01-01 19:37:00,3,True,True,0.0,HORSHAM,Horsham,51.06606325684371,-0.31926945149913594,33.0,33.0
202407037148853,G48853,2024-07-03,Darwin,PBRO458,1900-01-01 18:41:00,1900-01-01 18:41:00,,,1900-01-01 19:34:00,1900-01-01 19:34:00,,True,True,0.0,,PBRO458,,,53.0,53.0
202407037143725,G43725,2024-07-03,Darwin,CHRDJSB,1900-01-01 18:54:30,1900-01-01 19:22:00,,,1900-01-01 19:32:00,1900-01-01 19:33:00,,True,True,27.5,,CHRDJSB,,,11.0,37.5
202407037143725,G43725,2024-07-03,Darwin,YOVILPM,1900-01-01 19:42:00,1900-01-01 19:51:00,,,1900-01-01 19:51:00,1900-01-01 19:52:00,1,True,True,9.0,YOVILPM,Yeovil Pen Mill,50.944524921016935,-2.6134281016607943,1.0,9.0
202407037143725,G43725,2024-07-03,Darwin,CCARY,1900-01-01 20:04:30,1900-01-01 20:39:00,,,1900-01-01 20:06:00,1900-01-01 20:07:00,3,True,True,34.5,CCARY,Castle Cary,51.09981307412346,-2.522794283772196,,1.5
202407037143725,G43725,2024-07-03,Darwin,CHRDJSB,1900-01-01 21:09:00,1900-01-01 21:15:00,,,1900-01-01 20:37:00,1900-01-01 20:38:00,,True,True,6.0,,CHRDJSB,,,,
202407037143725,G43725,2024-07-03,Darwin,HONITON,1900-01-01 21:30:00,1900-01-01 21:57:30,,,1900-01-01 20:53:00,1900-01-01 20:54:00,1,True,True,27.5,HONITON,Honiton,50.79657942074041,-3.186717773592634,,
202407037143725,G43725,2024-07-03,Darwin,EXETRSD,1900-01-01 22:14:30,1900-01-01 22:18:30,,,1900-01-01 21:11:00,1900-01-01 21:12:00,3,True,True,4.0,EXETRSD,Exeter St Davids,50.729273158876744,-3.54328609006847,,
202407037143725,G43725,2024-07-03,Darwin,EXET679,1900-01-01 22:19:30,1900-01-01 22:22:30,,,1900-01-01 21:13:00,1900-01-01 21:14:00,,True,True,3.0,,EXET679,,,,
202407036765061,C65061,2024-07-03,Darwin,SNDRLND,1900-01-01 18:40:30,1900-01-01 18:41:00,18:41:00,18:41:00,1900-01-01 19:32:00,1900-01-01 19:32:00,3,True,True,0.5,SNDRLND,Sunderland,54.90533814401926,-1.3823042459910266,51.0,51.5
202407036765061,C65061,2024-07-03,Darwin,SNDRMNK,1900-01-01 18:42:00,1900-01-01 18:42:30,18:42:00,18:42:00,1900-01-01 19:33:00,1900-01-01 19:34:00,,True,True,0.5,SNDRMNK,St Peters,54.911438567967195,-1.3838018915515635,51.5,51.0
202407036765061,C65061,2024-07-03,Darwin,STDI,1900-01-01 18:43:30,1900-01-01 18:44:00,18:44:00,18:44:00,1900-01-01 19:35:00,1900-01-01 19:35:00,,True,True,0.5,,STDI,,,51.0,51.5
202407036765061,C65061,2024-07-03,Darwin,SEABURN,1900-01-01 18:45:30,1900-01-01 18:46:00,18:46:00,18:46:00,1900-01-01 19:37:00,1900-01-01 19:37:00,,True,True,0.5,SEABURN,Seaburn,54.92953391796904,-1.3866932934099372,51.0,51.5
202407036765061,C65061,2024-07-03,Darwin,EBOLDON,1900-01-01 18:49:00,1900-01-01 18:49:30,18:49:00,18:49:00,1900-01-01 19:40:00,1900-01-01 19:41:00,,True,True,0.5,EBOLDON,East Boldon,54.94641352696168,-1.4203138734150533,51.5,51.0
202407036765061,C65061,2024-07-03,Darwin,BRWHINS,1900-01-01 18:52:30,1900-01-01 18:53:00,18:53:00,18:53:00,1900-01-01 19:44:00,1900-01-01 19:44:00,,True,True,0.5,BRWHINS,Brockley Whins,54.95954252782653,-1.4613532291685132,51.0,51.5
202407036765061,C65061,2024-07-03,Darwin,FELL,1900-01-01 18:54:30,1900-01-01 18:55:00,18:55:00,18:55:00,1900-01-01 19:46:00,1900-01-01 19:46:00,,True,True,0.5,,FELL,,,51.0,51.5
202407036765061,C65061,2024-07-03,Darwin,PELAWTW,1900-01-01 19:01:00,1900-01-01 19:01:30,19:01:00,19:01:00,1900-01-01 19:51:00,1900-01-01 19:52:00,,True,True,0.5,,PELAWTW,,,50.5,50.0
202407036765061,C65061,2024-07-03,Darwin,HEWOMTR,1900-01-01 19:03:00,1900-01-01 19:04:00,19:03:00,19:04:00,1900-01-01 19:53:00,1900-01-01 19:54:00,,True,True,1.0,,HEWOMTR,,,50.0,50.0
202407036765061,C65061,2024-07-03,Darwin,NWCSTLL,1900-01-01 19:10:30,1900-01-01 19:11:00,19:11:00,19:11:00,1900-01-01 20:01:00,1900-01-01 20:01:00,,True,True,0.5,,NWCSTLL,,,50.0,50.5
202407036765044,C65044,2024-07-03,Darwin,SNDRLND,1900-01-01 18:08:30,1900-01-01 18:09:00,18:09:00,18:09:00,1900-01-01 19:32:00,1900-01-01 19:32:00,2,True,True,0.5,SNDRLND,Sunderland,54.90533814401926,-1.3823042459910266,83.0,83.5
202407036765044,C65044,2024-07-03,Darwin,CIVI,1900-01-01 18:10:00,1900-01-01 18:13:30,18:10:00,18:13:00,1900-01-01 19:33:00,1900-01-01 19:34:00,1,True,True,3.5,,CIVI,,,80.5,83.0
202407036765044,C65044,2024-07-03,Darwin,UNIV,1900-01-01 18:14:00,1900-01-01 18:14:30,18:14:00,18:14:00,1900-01-01 19:35:00,1900-01-01 19:35:00,,True,True,0.5,,UNIV,,,80.5,81.0
202407036765044,C65044,2024-07-03,Darwin,MLLF,1900-01-01 18:15:30,1900-01-01 18:16:00,18:16:00,18:16:00,1900-01-01 19:36:00,1900-01-01 19:37:00,,True,True,0.5,,MLLF,,,81.0,80.5
202407036765044,C65044,2024-07-03,Darwin,PALL,1900-01-01 18:17:30,1900-01-01 18:18:00,18:18:00,18:18:00,1900-01-01 19:38:00,1900-01-01 19:39:00,,True,True,0.5,,PALL,,,81.0,80.5
202407038098929,P98929,2024-07-03,Darwin,FAV4352,1900-01-01 17:44:00,1900-01-01 17:52:00,,,1900-01-01 19:34:00,1900-01-01 19:35:00,,True,True,8.0,,FAV4352,,,103.0,110.0
202407038083702,P83702,2024-07-03,Darwin,CWDN941,1900-01-01 19:25:00,1900-01-01 19:30:00,,,1900-01-01 19:33:00,1900-01-01 19:34:00,,True,True,5.0,,CWDN941,,,4.0,8.0
202407038083903,P83903,2024-07-03,Darwin,LNLTUPL,1900-01-01 19:23:00,1900-01-01 19:35:30,,,1900-01-01 19:34:00,1900-01-01 19:35:00,,True,True,12.5,,LNLTUPL,,,,11.0
202407038083903,P83903,2024-07-03,Darwin,LNLTHGW,1900-01-01 19:37:30,1900-01-01 19:38:00,,,1900-01-01 19:37:00,1900-01-01 19:37:00,2,True,True,0.5,LNLTHGW,Linlithgow,55.976450891501344,-3.595852021356448,,
202407037149485,G49485,2024-07-03,Darwin,STALBCS,1900-01-01 19:26:00,1900-01-01 19:34:00,,,1900-01-01 19:34:00,1900-01-01 19:35:00,,True,True,8.0,,STALBCS,,,1.0,8.0
202407037149476,G49476,2024-07-03,Darwin,STALBCS,1900-01-01 17:56:00,1900-01-01 18:04:00,,,1900-01-01 19:34:00,1900-01-01 19:35:00,,True,True,8.0,,STALBCS,,,91.0,98.0
202407037148717,G48717,2024-07-03,Darwin,STALBCS,1900-01-01 18:41:00,1900-01-01 18:49:00,,,1900-01-01 19:34:00,1900-01-01 19:35:00,,True,True,8.0,,STALBCS,,,46.0,53.0
202407037131701,G31701,2024-07-03,Darwin,WRGTCCS,1900-01-01 17:36:30,1900-01-01 17:40:30,,,1900-01-01 19:33:00,1900-01-01 19:34:00,,True,True,4.0,,WRGTCCS,,,113.5,116.5
202407036738244,C38244,2024-07-03,Darwin,KTON,1900-01-01 18:44:30,1900-01-01 18:45:00,18:45:00,18:45:00,1900-01-01 19:34:00,1900-01-01 19:34:00,1,True,True,0.5,KTON,Kenton,51.58179984130422,-0.31698088367761995,49.0,49.5
202407036738244,C38244,2024-07-03,Darwin,SKENTON,1900-01-01 18:46:30,1900-01-01 18:47:00,18:47:00,18:47:00,1900-01-01 19:36:00,1900-01-01 19:36:00,1,True,True,0.5,SKENTON,South Kenton,51.570212276221774,-0.3084624002610995,49.0,49.5
202407036738244,C38244,2024-07-03,Darwin,NWEMBLY,1900-01-01 18:48:30,1900-01-01 18:49:00,18:49:00,18:49:00,1900-01-01 19:38:00,1900-01-01 19:38:00,1,True,True,0.5,NWEMBLY,North Wembley,51.56259414690466,-0.30398407438141134,49.0,49.5
202407036738244,C38244,2024-07-03,Darwin,WMBYDC,1900-01-01 18:50:30,1900-01-01 18:51:00,18:51:00,18:51:00,1900-01-01 19:40:00,1900-01-01 19:40:00,2,True,True,0.5,WMBYDC,Wembley Central,51.55232328504496,-0.29641840570032507,49.0,49.5
202407036738244,C38244,2024-07-03,Darwin,STNBGPK,1900-01-01 18:54:00,1900-01-01 18:54:30,18:54:00,18:54:00,1900-01-01 19:43:00,1900-01-01 19:44:00,1,True,True,0.5,STNBGPK,Stonebridge Park,51.544109297943415,-0.2758283843034659,49.5,49.0
202407036738244,C38244,2024-07-03,Darwin,HARLSDN,1900-01-01 18:56:30,1900-01-01 18:57:00,18:57:00,18:57:00,1900-01-01 19:46:00,1900-01-01 19:46:00,1,True,True,0.5,HARLSDN,Harlesden,51.536287440601605,-0.25766753012443244,49.0,49.5
202407036738244,C38244,2024-07-03,Darwin,WLSDNJL,1900-01-01 18:58:30,1900-01-01 18:59:00,18:59:00,18:59:00,1900-01-01 19:48:00,1900-01-01 19:48:00,1,True,True,0.5,WLSDNJL,Willesden Junction Low Level,51.53202614197503,-0.2432682798041903,49.0,49.5
202407036738244,C38244,2024-07-03,Darwin,KENSLG,1900-01-01 19:01:00,1900-01-01 19:01:30,19:01:00,19:01:00,1900-01-01 19:50:00,1900-01-01 19:51:00,1,True,True,0.5,KENSLG,Kensal Green,51.53053850642573,-0.22508762025614396,49.5,49.0
202407036738244,C38244,2024-07-03,Darwin,QPRK,1900-01-01 19:06:30,1900-01-01 19:08:00,19:07:00,,1900-01-01 19:56:00,,2,True,True,1.5,QPRK,Queens Park (London),51.53396447272617,-0.20498481179665223,,49.5
202407037149482,G49482,2024-07-03,Darwin,STALBCS,1900-01-01 18:56:00,1900-01-01 19:04:00,,,1900-01-01 19:34:00,1900-01-01 19:35:00,,True,True,8.0,,STALBCS,,,31.0,38.0
202407037148711,G48711,2024-07-03,Darwin,STALBCS,1900-01-01 17:41:00,1900-01-01 17:49:00,,,1900-01-01 19:34:00,1900-01-01 19:35:00,,True,True,8.0,,STALBCS,,,106.0,113.0
202407036705133,C05133,2024-07-03,Darwin,PLMD818,1900-01-01 18:14:00,1900-01-01 18:14:00,,,1900-01-01 19:37:00,1900-01-01 19:37:00,,True,True,0.0,,PLMD818,,,83.0,83.0
202407038092106,P92106,2024-07-03,Darwin,NEWXGEL,1900-01-01 18:56:00,1900-01-01 18:57:00,,,1900-01-01 19:32:00,1900-01-01 19:33:00,1,True,True,1.0,NEWXGEL,New Cross Gate ELL,51.47512677567174,-0.04041334317043049,36.0,36.0
202407037148720,G48720,2024-07-03,Darwin,STALBCS,1900-01-01 19:11:00,1900-01-01 19:19:00,,,1900-01-01 19:34:00,1900-01-01 19:35:00,,True,True,8.0,,STALBCS,,,16.0,23.0
202407036784798,C84798,2024-07-03,CIS,TOTCTRD,1900-01-01 19:55:00,1900-01-01 19:56:00,19:55:00,19:56:00,1900-01-01 19:55:00,1900-01-01 19:56:00,B,True,True,1.0,TOTCTRD,Tottenham Court Road,51.5207,-0.1345,,
202407036784798,C84798,2024-07-03,CIS,BONDST,1900-01-01 19:57:30,1900-01-01 19:58:00,19:58:00,19:58:00,1900-01-01 19:58:00,1900-01-01 19:58:00,B,True,True,0.5,BONDST,Bond Street Station,51.514,-0.15,,0.5
202407036784798,C84798,2024-07-03,CIS,FRNDXR,1900-01-01 19:52:00,1900-01-01 19:53:00,19:52:00,19:53:00,1900-01-01 19:52:00,1900-01-01 19:53:00,B,True,True,1.0,,FRNDXR,,,,
202407036784798,C84798,2024-07-03,CIS,TOTCTRD,1900-01-01 19:55:00,1900-01-01 19:56:00,19:55:00,19:56:00,1900-01-01 19:55:00,1900-01-01 19:56:00,B,True,True,1.0,TOTCTRD,Tottenham Court Road,51.5207,-0.1345,,
202407036784798,C84798,2024-07-03,CIS,LIVSTLL,1900-01-01 19:49:30,1900-01-01 19:50:30,19:50:00,19:50:00,1900-01-01 19:50:00,1900-01-01 19:50:00,B,True,True,1.0,LIVSTLL,London Liverpool Street Crossrail,51.5186,-0.0813,,0.5
202407036784798,C84798,2024-07-03,CIS,FRNDXR,1900-01-01 19:52:00,1900-01-01 19:53:00,19:52:00,19:53:00,1900-01-01 19:52:00,1900-01-01 19:53:00,B,True,True,1.0,,FRNDXR,,,,
202407036784798,C84798,2024-07-03,CIS,WCHAPXR,1900-01-01 19:46:30,1900-01-01 19:47:30,19:47:00,19:47:00,1900-01-01 19:47:00,1900-01-01 19:47:00,B,True,True,1.0,WCHAPXR,Whitechapel Crossrail,51.9195,-0.0612,,0.5
202407036784798,C84798,2024-07-03,CIS,LIVSTLL,1900-01-01 19:49:30,1900-01-01 19:50:30,19:50:00,19:50:00,1900-01-01 19:50:00,1900-01-01 19:50:00,B,True,True,1.0,LIVSTLL,London Liverpool Street Crossrail,51.5186,-0.0813,,0.5
202407036784798,C84798,2024-07-03,CIS,CANWHRF,1900-01-01 19:40:30,1900-01-01 19:43:30,19:41:00,19:43:00,1900-01-01 19:41:00,1900-01-01 19:43:00,B,True,True,3.0,CANWHRF,Canary Wharf Railway Station,51.5061,-0.01578,,0.5
202407036784798,C84798,2024-07-03,CIS,WCHAPXR,1900-01-01 19:46:30,1900-01-01 19:47:30,19:47:00,19:47:00,1900-01-01 19:47:00,1900-01-01 19:47:00,B,True,True,1.0,WCHAPXR,Whitechapel Crossrail,51.9195,-0.0612,,0.5
202407036784798,C84798,2024-07-03,CIS,BONDST,1900-01-01 19:57:30,1900-01-01 19:58:00,19:58:00,19:58:00,1900-01-01 19:58:00,1900-01-01 19:58:00,B,True,True,0.5,BONDST,Bond Street Station,51.514,-0.15,,0.5
202407036784798,C84798,2024-07-03,CIS,CUSTMHS,1900-01-01 19:37:00,1900-01-01 19:37:30,19:37:00,19:37:00,1900-01-01 19:38:00,1900-01-01 19:38:00,B,True,True,0.5,,CUSTMHS,,,0.5,1.0
202407036784798,C84798,2024-07-03,CIS,WOLWXR,1900-01-01 19:33:00,1900-01-01 19:33:30,19:33:00,19:33:00,1900-01-01 19:34:00,1900-01-01 19:35:00,B,True,True,0.5,,WOLWXR,,,1.5,1.0
202407036784798,C84798,2024-07-03,CIS,CUSTMHS,1900-01-01 19:37:00,1900-01-01 19:37:30,19:37:00,19:37:00,1900-01-01 19:38:00,1900-01-01 19:39:00,B,True,True,0.5,,CUSTMHS,,,1.5,1.0
202407036784798,C84798,2024-07-03,CIS,CANWHRF,1900-01-01 19:40:30,1900-01-01 19:43:30,19:41:00,19:43:00,1900-01-01 19:42:00,1900-01-01 19:43:00,B,True,True,3.0,CANWHRF,Canary Wharf Railway Station,51.5061,-0.01578,,1.5
202407036784798,C84798,2024-07-03,CIS,WOLWXR,1900-01-01 19:33:00,1900-01-01 19:33:30,19:33:00,19:33:00,1900-01-01 19:35:00,1900-01-01 19:35:00,B,True,True,0.5,,WOLWXR,,,1.5,2.0
202407036784798,C84798,2024-07-03,CIS,CUSTMHS,1900-01-01 19:37:00,1900-01-01 19:37:30,19:37:00,19:37:00,1900-01-01 19:39:00,1900-01-01 19:39:00,B,True,True,0.5,,CUSTMHS,,,1.5,2.0
202407036784798,C84798,2024-07-03,CIS,BONDST,1900-01-01 19:57:30,1900-01-01 19:58:00,19:58:00,19:58:00,1900-01-01 19:58:00,1900-01-01 19:58:00,B,True,True,0.5,BONDST,Bond Street Station,51.514,-0.15,,0.5
202407036784798,C84798,2024-07-03,CIS,PADTLL,1900-01-01 20:00:30,1900-01-01 20:02:00,20:01:00,20:02:00,1900-01-01 20:01:00,1900-01-01 20:02:00,B,True,True,1.5,,PADTLL,,,,0.5
202407036784798,C84798,2024-07-03,TD,WOLWXR,1900-01-01 19:33:00,1900-01-01 19:33:30,19:33:00,19:33:00,1900-01-01 19:34:00,1900-01-01 19:35:00,B,True,True,0.5,,WOLWXR,,,1.5,1.0
202407036784798,C84798,2024-07-03,TD,CUSTMHS,1900-01-01 19:37:00,1900-01-01 19:37:30,19:37:00,19:37:00,1900-01-01 19:38:00,1900-01-01 19:39:00,B,True,True,0.5,,CUSTMHS,,,1.5,1.0
202407036784798,C84798,2024-07-03,CIS,TOTCTRD,1900-01-01 19:55:00,1900-01-01 19:56:00,19:55:00,19:56:00,1900-01-01 19:55:00,1900-01-01 19:56:00,B,True,True,1.0,TOTCTRD,Tottenham Court Road,51.5207,-0.1345,,
202407036784798,C84798,2024-07-03,CIS,BONDST,1900-01-01 19:57:30,1900-01-01 19:58:00,19:58:00,19:58:00,1900-01-01 19:58:00,1900-01-01 19:58:00,B,True,True,0.5,BONDST,Bond Street Station,51.514,-0.15,,0.5
202407036784798,C84798,2024-07-03,CIS,LIVSTLL,1900-01-01 19:49:30,1900-01-01 19:50:30,19:50:00,19:50:00,1900-01-01 19:50:00,1900-01-01 19:50:00,B,True,True,1.0,LIVSTLL,London Liverpool Street Crossrail,51.5186,-0.0813,,0.5
202407036784798,C84798,2024-07-03,CIS,TOTCTRD,1900-01-01 19:55:00,1900-01-01 19:56:00,19:55:00,19:56:00,1900-01-01 19:55:00,1900-01-01 19:56:00,B,True,True,1.0,TOTCTRD,Tottenham Court Road,51.5207,-0.1345,,
202407036784798,C84798,2024-07-03,CIS,WCHAPXR,1900-01-01 19:46:30,1900-01-01 19:47:30,19:47:00,19:47:00,1900-01-01 19:47:00,1900-01-01 19:47:00,B,True,True,1.0,WCHAPXR,Whitechapel Crossrail,51.9195,-0.0612,,0.5
202407036784798,C84798,2024-07-03,CIS,LIVSTLL,1900-01-01 19:49:30,1900-01-01 19:50:30,19:50:00,19:50:00,1900-01-01 19:50:00,1900-01-01 19:50:00,B,True,True,1.0,LIVSTLL,London Liverpool Street Crossrail,51.5186,-0.0813,,0.5
202407036784798,C84798,2024-07-03,CIS,CUSTMHS,1900-01-01 19:37:00,1900-01-01 19:37:30,19:37:00,19:37:00,1900-01-01 19:38:00,1900-01-01 19:39:00,B,True,True,0.5,,CUSTMHS,,,1.5,1.0
202407036784798,C84798,2024-07-03,CIS,CANWHRF,1900-01-01 19:40:30,1900-01-01 19:43:30,19:41:00,19:43:00,1900-01-01 19:42:00,1900-01-01 19:43:00,B,True,True,3.0,CANWHRF,Canary Wharf Railway Station,51.5061,-0.01578,,1.5
202407036731517,C31517,2024-07-03,CIS,CREWE,1900-01-01 20:43:00,1900-01-01 20:45:00,20:43:00,20:45:00,1900-01-01 21:00:00,1900-01-01 21:01:00,6,True,True,2.0,CREWE,Crewe,53.089623240390374,-2.4329687813213394,16.0,17.0
202407036731517,C31517,2024-07-03,CIS,RUNCORN,1900-01-01 21:04:00,1900-01-01 21:05:30,21:03:00,21:04:00,1900-01-01 21:16:00,1900-01-01 21:17:00,2,True,True,1.5,RUNCORN,Runcorn,53.338693113242165,-2.7392510767956444,11.5,12.0
202407036707715,C07715,2024-07-03,Darwin,LADYBHL,1900-01-01 19:24:00,1900-01-01 19:35:30,,,1900-01-01 19:34:00,1900-01-01 19:35:00,,True,True,11.5,,LADYBHL,,,,10.0
202407038084230,P84230,2024-07-03,Darwin,BSDN,1900-01-01 18:26:30,1900-01-01 18:29:00,,,1900-01-01 19:36:00,1900-01-01 19:37:00,1,True,True,2.5,BSDN,Bearsden,55.91712785837148,-4.332019995860379,68.0,69.5
202407038084230,P84230,2024-07-03,Darwin,ANSL,1900-01-01 18:33:30,1900-01-01 18:34:00,,,1900-01-01 19:42:00,1900-01-01 19:42:00,1,True,True,0.5,ANSL,Anniesland,55.88934879502829,-4.321956697888183,68.0,68.5
202407038502732,U02732,2024-07-03,Darwin,GRVRBGJ,1900-01-01 19:48:00,1900-01-01 19:56:00,,,1900-01-01 19:58:00,1900-01-01 19:59:00,,True,True,8.0,,GRVRBGJ,,,3.0,10.0
202407036717213,C17213,2024-07-03,Darwin,HARLSDN,1900-01-01 18:40:00,1900-01-01 18:40:30,18:40:00,18:40:00,1900-01-01 19:35:00,1900-01-01 19:35:00,1,True,True,0.5,HARLSDN,Harlesden,51.536287440601605,-0.25766753012443244,54.5,55.0
202407036717213,C17213,2024-07-03,Darwin,WLSDNJL,1900-01-01 18:42:00,1900-01-01 18:42:30,18:42:00,18:42:00,1900-01-01 19:37:00,1900-01-01 19:37:00,1,True,True,0.5,WLSDNJL,Willesden Junction Low Level,51.53202614197503,-0.2432682798041903,54.5,55.0
202407036717213,C17213,2024-07-03,Darwin,KENSLG,1900-01-01 18:44:30,1900-01-01 18:45:00,18:45:00,18:45:00,1900-01-01 19:39:00,1900-01-01 19:40:00,1,True,True,0.5,KENSLG,Kensal Green,51.53053850642573,-0.22508762025614396,55.0,54.5
202407036717213,C17213,2024-07-03,Darwin,QPRK,1900-01-01 18:48:30,1900-01-01 18:50:00,18:49:00,18:50:00,1900-01-01 19:43:00,1900-01-01 19:44:00,2,True,True,1.5,QPRK,Queens Park (London),51.53396447272617,-0.20498481179665223,54.0,54.5
202407038629754,V29754,2024-07-03,Darwin,BRST720,1900-01-01 18:44:00,1900-01-01 18:48:00,,,1900-01-01 19:40:00,1900-01-01 19:41:00,,True,True,4.0,,BRST720,,,53.0,56.0
202407037132972,G32972,2024-07-03,Darwin,SPRB,1900-01-01 19:16:30,1900-01-01 19:21:00,,,1900-01-01 19:37:00,1900-01-01 19:38:00,,True,True,4.5,,SPRB,,,17.0,20.5
202407037133213,G33213,2024-07-03,Darwin,CARLNEC,1900-01-01 19:10:00,1900-01-01 19:13:00,,,1900-01-01 19:37:00,1900-01-01 19:38:00,,True,True,3.0,,CARLNEC,,,25.0,27.0
202407037131880,G31880,2024-07-03,Darwin,PRSTSHL,1900-01-01 19:14:00,1900-01-01 19:44:00,,,1900-01-01 19:35:00,1900-01-01 19:36:00,,True,True,30.0,,PRSTSHL,,,,21.0
202407037154103,G54103,2024-07-03,Darwin,CRAWLEY,1900-01-01 19:26:30,1900-01-01 19:27:30,19:27:00,19:27:00,1900-01-01 19:36:00,1900-01-01 19:36:00,2,True,True,1.0,CRAWLEY,Crawley,51.112212087921925,-0.1866728926192064,8.5,9.5
202407037154103,G54103,2024-07-03,Darwin,IFIELD,1900-01-01 19:29:30,1900-01-01 19:30:00,19:30:00,19:30:00,1900-01-01 19:38:00,1900-01-01 19:39:00,2,True,True,0.5,IFIELD,Ifield,51.1156211846563,-0.21477211260232246,9.0,8.5
202407037154103,G54103,2024-07-03,Darwin,FAYGATE,1900-01-01 19:33:30,1900-01-01 19:34:00,19:34:00,19:34:00,1900-01-01 19:42:00,1900-01-01 19:43:00,2,True,True,0.5,FAYGATE,Faygate,51.095888923378574,-0.2630186258420345,9.0,8.5
202407037154103,G54103,2024-07-03,Darwin,LHVN,1900-01-01 19:37:30,1900-01-01 19:38:30,19:38:00,19:38:00,1900-01-01 19:46:00,1900-01-01 19:47:00,2,True,True,1.0,LHVN,Littlehaven,51.07974951778975,-0.30798049031881236,8.5,8.5
202407037133117,G33117,2024-07-03,Darwin,MNCRPIC,1900-01-01 19:35:00,1900-01-01 19:39:00,,,1900-01-01 19:38:00,1900-01-01 19:39:00,3,True,True,4.0,MNCRPIC,Manchester Piccadilly,53.47735978497863,-2.230909854448797,,3.0
202407036707715,C07715,2024-07-03,Darwin,LADYBHL,1900-01-01 19:24:00,1900-01-01 19:35:30,,,1900-01-01 19:45:00,1900-01-01 19:46:00,,True,True,11.5,,LADYBHL,,,10.5,21.0
202407038084230,P84230,2024-07-03,Darwin,BSDN,1900-01-01 18:26:30,1900-01-01 18:29:00,,,1900-01-01 19:47:00,1900-01-01 19:48:00,1,True,True,2.5,BSDN,Bearsden,55.91712785837148,-4.332019995860379,79.0,80.5
202407038084230,P84230,2024-07-03,Darwin,ANSL,1900-01-01 18:33:30,1900-01-01 18:34:00,,,1900-01-01 19:53:00,1900-01-01 19:53:00,1,True,True,0.5,ANSL,Anniesland,55.88934879502829,-4.321956697888183,79.0,79.5
202407037133117,G33117,2024-07-03,Darwin,MNCRPIC,1900-01-01 19:35:00,1900-01-01 19:39:00,,,1900-01-01 19:49:00,1900-01-01 19:50:00,3,True,True,4.0,MNCRPIC,Manchester Piccadilly,53.47735978497863,-2.230909854448797,11.0,14.0
202407037139100,G39100,2024-07-03,Darwin,LINGFLD,1900-01-01 19:42:30,1900-01-01 19:43:00,19:43:00,19:43:00,1900-01-01 19:46:00,1900-01-01 19:47:00,1,True,True,0.5,LINGFLD,Lingfield,51.17645105943924,-0.007164589323610525,4.0,3.5
202407037139100,G39100,2024-07-03,Darwin,HRSTGRN,1900-01-01 19:49:30,1900-01-01 19:50:30,19:50:00,19:50:00,1900-01-01 19:53:00,1900-01-01 19:54:00,1,True,True,1.0,HRSTGRN,Hurst Green,51.24442896637643,0.003939365363266872,3.5,3.5
202407037139100,G39100,2024-07-03,Darwin,OXTED,1900-01-01 19:52:30,1900-01-01 19:53:30,19:53:00,19:53:00,1900-01-01 19:56:00,1900-01-01 19:56:00,1,True,True,1.0,OXTED,Oxted,51.25790652171082,-0.004833539596867451,2.5,3.5
202407037139100,G39100,2024-07-03,Darwin,WLDNGHM,1900-01-01 19:58:30,1900-01-01 19:59:00,19:59:00,19:59:00,1900-01-01 20:01:00,1900-01-01 20:02:00,1,True,True,0.5,WLDNGHM,Woldingham,51.29015616520065,-0.051869670122120334,3.0,2.5
202407037139100,G39100,2024-07-03,Darwin,UWRLNGH,1900-01-01 20:02:00,1900-01-01 20:02:30,20:02:00,20:02:00,1900-01-01 20:05:00,1900-01-01 20:05:00,1,True,True,0.5,UWRLNGH,Upper Warlingham,51.30851006332285,-0.07795170532163145,2.5,3.0
202407037139100,G39100,2024-07-03,Darwin,RDLSDWN,1900-01-01 20:05:30,1900-01-01 20:06:00,20:06:00,20:06:00,1900-01-01 20:08:00,1900-01-01 20:09:00,1,True,True,0.5,RDLSDWN,Riddlesdown,51.332484087366765,-0.0993866639554718,3.0,2.5
202407037139100,G39100,2024-07-03,Darwin,SDSD,1900-01-01 20:08:30,1900-01-01 20:09:30,20:09:00,20:09:00,1900-01-01 20:11:00,1900-01-01 20:12:00,1,True,True,1.0,SDSD,Sanderstead,51.348281583995664,-0.09367826515675137,2.5,2.5
202407037139100,G39100,2024-07-03,Darwin,ECROYDN,1900-01-01 20:14:30,1900-01-01 20:15:30,20:15:00,20:15:00,1900-01-01 20:17:00,1900-01-01 20:17:00,4,True,True,1.0,ECROYDN,East Croydon,51.37545209915211,-0.09277965882775273,1.5,2.5
202407037139100,G39100,2024-07-03,Darwin,CLPHMJC,1900-01-01 20:25:00,1900-01-01 20:26:00,20:25:00,20:26:00,1900-01-01 20:27:00,1900-01-01 20:28:00,12,True,True,1.0,CLPHMJC,Clapham Junction,51.464186097313394,-0.1702789854926503,2.0,2.0
202407038089570,P89570,2024-07-03,Darwin,THBLDSG,1900-01-01 19:34:30,1900-01-01 19:35:00,19:35:00,19:35:00,1900-01-01 19:46:00,1900-01-01 19:47:00,1,True,True,0.5,THBLDSG,Theobalds Grove,51.692454860751624,-0.03483134069475558,12.0,11.5
202407038089570,P89570,2024-07-03,Darwin,TURKYST,1900-01-01 19:37:00,1900-01-01 19:37:30,19:37:00,19:37:00,1900-01-01 19:49:00,1900-01-01 19:49:00,1,True,True,0.5,TURKYST,Turkey Street,51.672626389736934,-0.04721659608195901,11.5,12.0
202407038089570,P89570,2024-07-03,Darwin,SBURY,1900-01-01 19:40:00,1900-01-01 19:40:30,19:40:00,19:40:00,1900-01-01 19:52:00,1900-01-01 19:52:00,1,True,True,0.5,SBURY,Southbury,51.648703346282694,-0.05243687123008014,11.5,12.0
202407038089570,P89570,2024-07-03,Darwin,EDMNGRN,1900-01-01 19:43:00,1900-01-01 19:43:30,19:43:00,19:43:00,1900-01-01 19:55:00,1900-01-01 19:55:00,1,True,True,0.5,EDMNGRN,Edmonton Green,51.62492706203259,-0.06111245302652029,11.5,12.0
202407038089570,P89570,2024-07-03,Darwin,SIVRST,1900-01-01 19:45:00,1900-01-01 19:45:30,19:45:00,19:45:00,1900-01-01 19:57:00,1900-01-01 19:57:00,1,True,True,0.5,SIVRST,Silver Street,51.61468679233771,-0.06723995618647544,11.5,12.0
202407038089570,P89570,2024-07-03,Darwin,WHHRTLA,1900-01-01 19:47:00,1900-01-01 19:47:30,19:47:00,19:47:00,1900-01-01 19:59:00,1900-01-01 19:59:00,1,True,True,0.5,WHHRTLA,White Hart Lane,51.60503537071085,-0.07091357802582281,11.5,12.0
202407038089570,P89570,2024-07-03,Darwin,BRUCGRV,1900-01-01 19:49:00,1900-01-01 19:49:30,19:49:00,19:49:00,1900-01-01 20:01:00,1900-01-01 20:01:00,1,True,True,0.5,BRUCGRV,Bruce Grove,51.59395742621009,-0.06986702802512407,11.5,12.0
202407038089570,P89570,2024-07-03,Darwin,SEVNSIS,1900-01-01 19:51:00,1900-01-01 19:52:00,19:51:00,19:52:00,1900-01-01 20:03:00,1900-01-01 20:04:00,1,True,True,1.0,SEVNSIS,Seven Sisters,51.5822660104942,-0.07527005762392455,12.0,12.0
202407038089570,P89570,2024-07-03,Darwin,STMFDHL,1900-01-01 19:53:30,1900-01-01 19:54:00,19:54:00,19:54:00,1900-01-01 20:05:00,1900-01-01 20:06:00,1,True,True,0.5,STMFDHL,Stamford Hill,51.57446569141696,-0.07668196245514552,12.0,11.5
202407038089570,P89570,2024-07-03,Darwin,STKNWNG,1900-01-01 19:55:30,1900-01-01 19:56:00,19:56:00,19:56:00,1900-01-01 20:07:00,1900-01-01 20:08:00,1,True,True,0.5,STKNWNG,Stoke Newington,51.56523107728528,-0.07288739115942998,12.0,11.5
202407038089570,P89570,2024-07-03,Darwin,RCTRYRD,1900-01-01 19:57:00,1900-01-01 19:57:30,19:57:00,19:57:00,1900-01-01 20:09:00,1900-01-01 20:09:00,1,True,True,0.5,RCTRYRD,Rectory Road,51.5585006313155,-0.06826691682303683,11.5,12.0
202407038089570,P89570,2024-07-03,Darwin,HAKNYNM,1900-01-01 19:59:30,1900-01-01 20:00:00,20:00:00,20:00:00,1900-01-01 20:11:00,1900-01-01 20:12:00,3,True,True,0.5,HAKNYNM,Hackney Downs,51.548755746293956,-0.060818976973404,12.0,11.5
202407038089570,P89570,2024-07-03,Darwin,LONFLDS,1900-01-01 20:01:30,1900-01-01 20:02:00,20:02:00,20:02:00,1900-01-01 20:13:00,1900-01-01 20:14:00,1,True,True,0.5,LONFLDS,London Fields,51.54115128292709,-0.05775333236201704,12.0,11.5
202407038089570,P89570,2024-07-03,Darwin,CAMHTH,1900-01-01 20:03:30,1900-01-01 20:04:00,20:04:00,20:04:00,1900-01-01 20:15:00,1900-01-01 20:16:00,1,True,True,0.5,CAMHTH,Cambridge Heath (London),51.53197100549928,-0.05727902454539279,12.0,11.5
202407038089570,P89570,2024-07-03,Darwin,BTHNLGR,1900-01-01 20:05:30,1900-01-01 20:06:00,20:06:00,20:06:00,1900-01-01 20:17:00,1900-01-01 20:18:00,1,True,True,0.5,BTHNLGR,Bethnal Green,51.52391556948206,-0.05956800438900095,12.0,11.5
202407038625790,V25790,2024-07-03,Darwin,WLMSL,1900-01-01 19:48:00,1900-01-01 19:51:00,19:49:00,19:51:00,1900-01-01 20:02:00,1900-01-01 20:03:00,3,True,True,3.0,WLMSL,Wilmslow,53.32684590221814,-2.226326948954314,12.0,14.0
202407038625790,V25790,2024-07-03,Darwin,STKP,1900-01-01 19:59:30,1900-01-01 20:01:30,20:01:00,20:01:00,1900-01-01 20:10:00,1900-01-01 20:10:00,3,True,True,2.0,STKP,Stockport,53.40553682828884,-2.163013043364333,8.5,10.5
202407037132972,G32972,2024-07-03,Darwin,SPRB,1900-01-01 19:16:30,1900-01-01 19:21:00,,,1900-01-01 19:48:00,1900-01-01 19:49:00,,True,True,4.5,,SPRB,,,28.0,31.5
202407037133213,G33213,2024-07-03,Darwin,CARLNEC,1900-01-01 19:10:00,1900-01-01 19:13:00,,,1900-01-01 19:47:00,1900-01-01 19:48:00,,True,True,3.0,,CARLNEC,,,35.0,37.0
202407036717213,C17213,2024-07-03,Darwin,HARLSDN,1900-01-01 18:40:00,1900-01-01 18:40:30,18:40:00,18:40:00,1900-01-01 19:46:00,1900-01-01 19:46:00,1,True,True,0.5,HARLSDN,Harlesden,51.536287440601605,-0.25766753012443244,65.5,66.0
202407036717213,C17213,2024-07-03,Darwin,WLSDNJL,1900-01-01 18:42:00,1900-01-01 18:42:30,18:42:00,18:42:00,1900-01-01 19:48:00,1900-01-01 19:48:00,1,True,True,0.5,WLSDNJL,Willesden Junction Low Level,51.53202614197503,-0.2432682798041903,65.5,66.0
202407036717213,C17213,2024-07-03,Darwin,KENSLG,1900-01-01 18:44:30,1900-01-01 18:45:00,18:45:00,18:45:00,1900-01-01 19:50:00,1900-01-01 19:51:00,1,True,True,0.5,KENSLG,Kensal Green,51.53053850642573,-0.22508762025614396,66.0,65.5
202407036717213,C17213,2024-07-03,Darwin,QPRK,1900-01-01 18:48:30,1900-01-01 18:50:00,18:49:00,18:50:00,1900-01-01 19:54:00,1900-01-01 19:55:00,2,True,True,1.5,QPRK,Queens Park (London),51.53396447272617,-0.20498481179665223,65.0,65.5
202407037150846,G50846,2024-07-03,Darwin,FLITWCK,1900-01-01 19:58:30,1900-01-01 19:59:00,19:59:00,19:59:00,1900-01-01 20:04:00,1900-01-01 20:05:00,1,True,True,0.5,FLITWCK,Flitwick,52.003640384691415,-0.49525781675140085,6.0,5.5
202407037150846,G50846,2024-07-03,Darwin,HRLG,1900-01-01 20:02:30,1900-01-01 20:03:00,20:03:00,20:03:00,1900-01-01 20:08:00,1900-01-01 20:09:00,1,True,True,0.5,HRLG,Harlington (Beds),51.9620603772902,-0.4956898852912933,6.0,5.5
202407037150846,G50846,2024-07-03,Darwin,LEAGRVE,1900-01-01 20:08:00,1900-01-01 20:08:30,20:08:00,20:08:00,1900-01-01 20:14:00,1900-01-01 20:14:00,1,True,True,0.5,LEAGRVE,Leagrave,51.905157310725386,-0.4585025979419626,5.5,6.0
202407037150846,G50846,2024-07-03,Darwin,LUTON,1900-01-01 20:11:30,1900-01-01 20:13:00,20:12:00,20:13:00,1900-01-01 20:17:00,1900-01-01 20:18:00,1,True,True,1.5,LUTON,Luton,51.882303167755396,-0.41404016809500005,5.0,5.5
202407037150846,G50846,2024-07-03,Darwin,LUTOAPY,1900-01-01 20:15:00,1900-01-01 20:16:00,20:15:00,20:16:00,1900-01-01 20:20:00,1900-01-01 20:21:00,1,True,True,1.0,LUTOAPY,Luton Airport Parkway,51.87243587338223,-0.39588096350906565,5.0,5.0
202407037150846,G50846,2024-07-03,Darwin,HRPNDN,1900-01-01 20:21:00,1900-01-01 20:22:00,20:21:00,20:22:00,1900-01-01 20:26:00,1900-01-01 20:27:00,1,True,True,1.0,HRPNDN,Harpenden,51.81464320534835,-0.35148047993733933,5.0,5.0
202407037150846,G50846,2024-07-03,Darwin,STALBCY,1900-01-01 20:26:30,1900-01-01 20:27:30,20:27:00,20:27:00,1900-01-01 20:32:00,1900-01-01 20:32:00,3,True,True,1.0,STALBCY,St Albans City,51.75047146780483,-0.3275382571633064,4.5,5.5
202407037150846,G50846,2024-07-03,Darwin,WHMPSTM,1900-01-01 20:39:00,1900-01-01 20:39:30,20:39:00,20:39:00,1900-01-01 20:44:00,1900-01-01 20:44:00,3,True,True,0.5,WHMPSTM,West Hampstead Thameslink,51.548474138050466,-0.19183687482396922,4.5,5.0
202407037150846,G50846,2024-07-03,Darwin,STPXBOX,1900-01-01 20:49:00,1900-01-01 20:50:00,20:49:00,20:50:00,1900-01-01 20:52:00,1900-01-01 20:53:00,A,True,True,1.0,STPXBOX,London St Pancras International LL,51.53216621968029,-0.1273427017223623,3.0,3.0
202407037150846,G50846,2024-07-03,Darwin,FRNDNLT,1900-01-01 20:53:30,1900-01-01 20:54:30,20:54:00,20:54:00,1900-01-01 20:56:00,1900-01-01 20:57:00,3,True,True,1.0,FRNDNLT,Farringdon (London),51.52016539281876,-0.10520462741583542,2.5,2.5
202407037150846,G50846,2024-07-03,Darwin,CTMSLNK,1900-01-01 20:55:30,1900-01-01 20:56:30,20:56:00,20:56:00,1900-01-01 20:58:00,1900-01-01 20:58:00,2,True,True,1.0,CTMSLNK,City Thameslink,51.51393443658694,-0.10358960144307615,1.5,2.5
202407037150846,G50846,2024-07-03,Darwin,BLFR,1900-01-01 20:58:00,1900-01-01 20:59:00,20:58:00,20:59:00,1900-01-01 21:00:00,1900-01-01 21:01:00,1,True,True,1.0,BLFR,London Blackfriars,51.511808029828224,-0.10333203061481108,2.0,2.0
202407037150846,G50846,2024-07-03,Darwin,LNDNBDE,1900-01-01 21:04:00,1900-01-01 21:05:30,21:04:00,21:05:00,1900-01-01 21:06:00,1900-01-01 21:07:00,4,True,True,1.5,LNDNBDE,London Bridge,51.505107204890635,-0.08608827868616997,1.5,2.0
202407037150846,G50846,2024-07-03,Darwin,ECROYDN,1900-01-01 21:18:00,1900-01-01 21:19:30,21:18:00,21:19:00,1900-01-01 21:18:00,1900-01-01 21:19:00,3,True,True,1.5,ECROYDN,East Croydon,51.37545209915211,-0.09277965882775273,,
202407037150846,G50846,2024-07-03,Darwin,GTWK,1900-01-01 21:33:30,1900-01-01 21:35:30,21:34:00,21:35:00,1900-01-01 21:34:00,1900-01-01 21:35:00,7,True,True,2.0,GTWK,Gatwick Airport,51.15648901918074,-0.16104149227569897,,0.5
202407037150846,G50846,2024-07-03,Darwin,THBDGS,1900-01-01 21:39:00,1900-01-01 21:40:30,21:39:00,21:40:00,1900-01-01 21:39:00,1900-01-01 21:40:00,5,True,True,1.5,THBDGS,Three Bridges,51.11692203632995,-0.16118404045328139,,
202407036738299,C38299,2024-07-03,Darwin,WLSDNJL,1900-01-01 19:01:30,1900-01-01 19:02:00,19:02:00,19:02:00,1900-01-01 19:44:00,1900-01-01 19:44:00,3,True,True,0.5,WLSDNJL,Willesden Junction Low Level,51.53202614197503,-0.2432682798041903,42.0,42.5
202407036738299,C38299,2024-07-03,Darwin,HARLSDN,1900-01-01 19:03:30,1900-01-01 19:04:00,19:04:00,19:04:00,1900-01-01 19:46:00,1900-01-01 19:46:00,2,True,True,0.5,HARLSDN,Harlesden,51.536287440601605,-0.25766753012443244,42.0,42.5
202407038629754,V29754,2024-07-03,Darwin,BRST720,1900-01-01 18:44:00,1900-01-01 18:48:00,,,1900-01-01 19:51:00,1900-01-01 19:52:00,,True,True,4.0,,BRST720,,,64.0,67.0
202407037131880,G31880,2024-07-03,Darwin,PRSTSHL,1900-01-01 19:14:00,1900-01-01 19:44:00,,,1900-01-01 19:46:00,1900-01-01 19:47:00,,True,True,30.0,,PRSTSHL,,,3.0,32.0
202407036746683,C46683,2024-07-03,Darwin,LEUCHRS,1900-01-01 19:46:00,1900-01-01 19:48:00,19:46:00,19:48:00,1900-01-01 19:55:00,1900-01-01 19:56:00,1,True,True,2.0,LEUCHRS,Leuchars,56.375101188053975,-2.8937129707354208,8.0,9.0
202407036746683,C46683,2024-07-03,Darwin,KCLD,1900-01-01 20:11:00,1900-01-01 20:13:00,20:11:00,20:13:00,1900-01-01 20:18:00,1900-01-01 20:19:00,1,True,True,2.0,KCLD,Kirkcaldy,56.11205662504242,-3.1670282497013686,6.0,7.0
202407036746683,C46683,2024-07-03,Darwin,IVRKTHG,1900-01-01 20:27:30,1900-01-01 20:29:30,20:28:00,20:29:00,1900-01-01 20:34:00,1900-01-01 20:35:00,1,True,True,2.0,IVRKTHG,Inverkeithing,56.03467558389106,-3.3961867831143637,5.5,6.5
202407036746683,C46683,2024-07-03,Darwin,HAYMRKT,1900-01-01 20:43:00,1900-01-01 20:45:00,20:43:00,20:45:00,1900-01-01 20:47:00,1900-01-01 20:48:00,1,True,True,2.0,HAYMRKT,Haymarket,55.94580631761191,-3.218449357526911,3.0,4.0
202407036746683,C46683,2024-07-03,Darwin,EDINBUR,1900-01-01 20:49:00,1900-01-01 21:01:00,20:49:00,21:00:00,1900-01-01 20:52:00,1900-01-01 21:00:00,2,True,True,12.0,EDINBUR,Edinburgh,55.95239135403411,-3.188227595364809,,3.0
202407038088761,P88761,2024-07-03,Darwin,EGRNSID,1900-01-01 19:27:00,1900-01-01 19:32:00,,,1900-01-01 19:46:00,1900-01-01 19:47:00,,True,True,5.0,,EGRNSID,,,15.0,19.0
202407036737306,C37306,2024-07-03,Darwin,WLSDNJL,1900-01-01 18:20:00,1900-01-01 18:20:30,18:20:00,18:20:00,1900-01-01 19:44:00,1900-01-01 19:44:00,3,True,True,0.5,WLSDNJL,Willesden Junction Low Level,51.53202614197503,-0.2432682798041903,83.5,84.0
202407036737306,C37306,2024-07-03,Darwin,HARLSDN,1900-01-01 18:22:00,1900-01-01 18:22:30,18:22:00,18:22:00,1900-01-01 19:46:00,1900-01-01 19:46:00,2,True,True,0.5,HARLSDN,Harlesden,51.536287440601605,-0.25766753012443244,83.5,84.0
202407036714704,C14704,2024-07-03,Darwin,BARKING,1900-01-01 19:37:00,1900-01-01 19:38:00,,,1900-01-01 20:18:00,1900-01-01 20:19:00,5,True,True,1.0,BARKING,Barking,51.53949301544078,0.08090246821316284,41.0,41.0
202407037133087,G33087,2024-07-03,Darwin,PRSTSHL,1900-01-01 18:54:00,1900-01-01 18:58:00,,,1900-01-01 19:46:00,1900-01-01 19:47:00,,True,True,4.0,,PRSTSHL,,,49.0,52.0
202407037133087,G33087,2024-07-03,Darwin,PRST,1900-01-01 19:00:00,1900-01-01 19:04:00,,,1900-01-01 19:49:00,1900-01-01 19:50:00,RES,True,True,4.0,PRST,Preston,53.756857773077485,-2.7081278044333805,46.0,49.0
202407037671492,L71492,2024-07-03,Darwin,PRITLWL,1900-01-01 18:39:00,1900-01-01 18:39:30,,,1900-01-01 19:46:00,1900-01-01 19:46:00,1,True,True,0.5,PRITLWL,Prittlewell,51.550685604982384,0.7106760698219792,66.5,67.0
202407037671492,L71492,2024-07-03,Darwin,STHEAIR,1900-01-01 18:42:00,1900-01-01 18:42:30,,,1900-01-01 19:49:00,1900-01-01 19:49:00,1,True,True,0.5,STHEAIR,Southend Airport,51.56866789503702,0.7050497914856464,66.5,67.0
202407037671492,L71492,2024-07-03,Darwin,ROCHFD,1900-01-01 18:44:00,1900-01-01 18:44:30,,,1900-01-01 19:51:00,1900-01-01 19:51:00,1,True,True,0.5,ROCHFD,Rochford,51.58172698307757,0.7023032827324859,66.5,67.0
202407037671492,L71492,2024-07-03,Darwin,HOCKLEY,1900-01-01 18:48:00,1900-01-01 18:48:30,,,1900-01-01 19:55:00,1900-01-01 19:55:00,1,True,True,0.5,HOCKLEY,Hockley,51.60355451510355,0.6590011304849506,66.5,67.0
202407037671492,L71492,2024-07-03,Darwin,RAYLEGH,1900-01-01 18:52:00,1900-01-01 18:52:30,,,1900-01-01 19:59:00,1900-01-01 19:59:00,,True,True,0.5,RAYLEGH,Rayleigh,51.589291562958465,0.5999834139271301,66.5,67.0
202407037671492,L71492,2024-07-03,Darwin,WIKFORD,1900-01-01 18:57:00,1900-01-01 18:57:30,,,1900-01-01 20:04:00,1900-01-01 20:04:00,3,True,True,0.5,WIKFORD,Wickford,51.615021436762724,0.5191850855886269,66.5,67.0
202407037671492,L71492,2024-07-03,Darwin,BILERCY,1900-01-01 19:02:30,1900-01-01 19:03:00,,,1900-01-01 20:09:00,1900-01-01 20:10:00,,True,True,0.5,BILERCY,Billericay,51.62888195821399,0.4186296631980501,67.0,66.5
202407037671493,L71493,2024-07-03,Darwin,BILERCY,1900-01-01 19:26:30,1900-01-01 19:27:30,,,1900-01-01 19:50:00,1900-01-01 19:51:00,,True,True,1.0,BILERCY,Billericay,51.62888195821399,0.4186296631980501,23.5,23.5
202407037671493,L71493,2024-07-03,Darwin,WIKFORD,1900-01-01 19:33:30,1900-01-01 19:34:30,,,1900-01-01 19:56:00,1900-01-01 19:57:00,2,True,True,1.0,WIKFORD,Wickford,51.615021436762724,0.5191850855886269,22.5,22.5
202407037671493,L71493,2024-07-03,Darwin,RAYLEGH,1900-01-01 19:39:00,1900-01-01 19:39:30,,,1900-01-01 20:02:00,1900-01-01 20:02:00,,True,True,0.5,RAYLEGH,Rayleigh,51.589291562958465,0.5999834139271301,22.5,23.0
202407037671493,L71493,2024-07-03,Darwin,HOCKLEY,1900-01-01 19:43:00,1900-01-01 19:43:30,,,1900-01-01 20:06:00,1900-01-01 20:06:00,2,True,True,0.5,HOCKLEY,Hockley,51.60355451510355,0.6590011304849506,22.5,23.0
202407037671493,L71493,2024-07-03,Darwin,ROCHFD,1900-01-01 19:46:30,1900-01-01 19:47:00,,,1900-01-01 20:09:00,1900-01-01 20:10:00,2,True,True,0.5,ROCHFD,Rochford,51.58172698307757,0.7023032827324859,23.0,22.5
202407037671493,L71493,2024-07-03,Darwin,STHEAIR,1900-01-01 19:49:00,1900-01-01 19:49:30,,,1900-01-01 20:12:00,1900-01-01 20:12:00,2,True,True,0.5,STHEAIR,Southend Airport,51.56866789503702,0.7050497914856464,22.5,23.0
202407037671493,L71493,2024-07-03,Darwin,PRITLWL,1900-01-01 19:52:00,1900-01-01 19:52:30,,,1900-01-01 20:15:00,1900-01-01 20:15:00,2,True,True,0.5,PRITLWL,Prittlewell,51.550685604982384,0.7106760698219792,22.5,23.0
202407037645856,L45856,2024-07-03,Darwin,CARDBKY,1900-01-01 18:08:00,1900-01-01 18:41:00,,,1900-01-01 19:46:00,1900-01-01 19:47:00,,True,True,33.0,,CARDBKY,,,66.0,98.0
202407036746965,C46965,2024-07-03,Darwin,BRWCKUT,1900-01-01 19:48:30,1900-01-01 19:57:00,,,1900-01-01 20:23:00,1900-01-01 20:24:00,1,True,True,8.5,BRWCKUT,Berwick-upon-Tweed,55.77433576621144,-2.010973284034733,27.0,34.5
202407036746965,C46965,2024-07-03,Darwin,NWCSTLE,1900-01-01 20:47:00,1900-01-01 21:00:00,,,1900-01-01 21:05:00,1900-01-01 21:06:00,3,True,True,13.0,NWCSTLE,Newcastle,54.968400242540895,-1.617279782459984,6.0,18.0
202407037133130,G33130,2024-07-03,Darwin,SPRB,1900-01-01 18:08:30,1900-01-01 18:13:00,,,1900-01-01 19:44:00,1900-01-01 19:45:00,,True,True,4.5,,SPRB,,,92.0,95.5
202407037143573,G43573,2024-07-03,Darwin,REDGWJN,1900-01-01 17:50:00,1900-01-01 17:57:00,,,1900-01-01 19:46:00,1900-01-01 19:47:00,,True,True,7.0,,REDGWJN,,,110.0,116.0
202407037143573,G43573,2024-07-03,Darwin,RDNGTCC,1900-01-01 17:58:30,1900-01-01 18:03:30,,,1900-01-01 19:48:00,1900-01-01 19:49:00,,True,True,5.0,,RDNGTCC,,,105.5,109.5
202407038329433,S29433,2024-07-03,Darwin,SANDH,1900-01-01 18:35:00,1900-01-01 18:35:30,,,1900-01-01 19:44:00,1900-01-01 19:44:00,2,True,True,0.5,SANDH,Sandhills,53.429935081608164,-2.991490178741465,68.5,69.0
202407038329433,S29433,2024-07-03,Darwin,BNKHALL,1900-01-01 18:37:30,1900-01-01 18:38:00,,,1900-01-01 19:46:00,1900-01-01 19:46:00,2,True,True,0.5,BNKHALL,Bank Hall,53.437491755742315,-2.987511327433023,68.0,68.5
202407038329433,S29433,2024-07-03,Darwin,BOOTLOR,1900-01-01 18:39:30,1900-01-01 18:40:00,,,1900-01-01 19:48:00,1900-01-01 19:48:00,2,True,True,0.5,BOOTLOR,Bootle Oriel Road,53.44661911357763,-2.9957333207386045,68.0,68.5
202407038329433,S29433,2024-07-03,Darwin,BOOTLNS,1900-01-01 18:41:00,1900-01-01 18:41:30,,,1900-01-01 19:49:00,1900-01-01 19:50:00,2,True,True,0.5,BOOTLNS,Bootle New Strand,53.4533869647025,-2.9947471688992158,68.5,68.0
202407038329433,S29433,2024-07-03,Darwin,SFRTHAL,1900-01-01 18:43:00,1900-01-01 18:43:30,,,1900-01-01 19:51:00,1900-01-01 19:52:00,2,True,True,0.5,SFRTHAL,Seaforth & Litherland,53.46626682616326,-3.005623169133688,68.5,68.0
202407038329433,S29433,2024-07-03,Darwin,WLOO,1900-01-01 18:45:30,1900-01-01 18:46:00,,,1900-01-01 19:53:00,1900-01-01 19:54:00,2,True,True,0.5,WLOO,Waterloo (Merseyside),53.474951567944515,-3.0255360913399887,68.0,67.5
202407038329433,S29433,2024-07-03,Darwin,BLNDLAC,1900-01-01 18:48:00,1900-01-01 18:48:30,,,1900-01-01 19:56:00,1900-01-01 19:56:00,2,True,True,0.5,BLNDLAC,Blundellsands & Crosby,53.48768182847913,-3.0398596991067945,67.5,68.0
202407038329433,S29433,2024-07-03,Darwin,HALLRD,1900-01-01 18:50:00,1900-01-01 18:50:30,,,1900-01-01 19:57:00,1900-01-01 19:58:00,2,True,True,0.5,HALLRD,Hall Road,53.49748416724681,-3.0496269695051517,67.5,67.0
202407038329433,S29433,2024-07-03,Darwin,HITN,1900-01-01 18:53:30,1900-01-01 18:54:00,,,1900-01-01 20:00:00,1900-01-01 20:01:00,2,True,True,0.5,HITN,Hightown,53.52510418910259,-3.057067868909308,67.0,66.5
202407038329433,S29433,2024-07-03,Darwin,FORMBY,1900-01-01 18:57:00,1900-01-01 18:57:30,,,1900-01-01 20:03:00,1900-01-01 20:04:00,2,True,True,0.5,FORMBY,Formby,53.553475513157686,-3.070907616375281,66.5,66.0
202407038329433,S29433,2024-07-03,Darwin,FRSHFLD,1900-01-01 18:59:00,1900-01-01 18:59:30,,,1900-01-01 20:05:00,1900-01-01 20:06:00,2,True,True,0.5,FRSHFLD,Freshfield,53.566051541948404,-3.0718293519764046,66.5,66.0
202407038329433,S29433,2024-07-03,Darwin,AINSDAL,1900-01-01 19:03:00,1900-01-01 19:03:30,,,1900-01-01 20:09:00,1900-01-01 20:09:00,2,True,True,0.5,AINSDAL,Ainsdale,53.60203065576637,-3.0426519324686083,65.5,66.0
202407038329433,S29433,2024-07-03,Darwin,HILLSID,1900-01-01 19:06:00,1900-01-01 19:07:00,,,1900-01-01 20:11:00,1900-01-01 20:12:00,2,True,True,1.0,HILLSID,Hillside,53.62210450099239,-3.0247163010758444,65.0,65.0
202407038329433,S29433,2024-07-03,Darwin,BKDLE,1900-01-01 19:10:30,1900-01-01 19:11:00,,,1900-01-01 20:14:00,1900-01-01 20:14:00,2,True,True,0.5,BKDLE,Birkdale,53.63404798330768,-3.014449533056303,63.0,63.5
202407038098821,P98821,2024-07-03,Darwin,RAMSUSW,1900-01-01 19:30:00,1900-01-01 20:08:00,,,1900-01-01 19:48:00,1900-01-01 19:49:00,,True,True,38.0,,RAMSUSW,,,,18.0
202407037132001,G32001,2024-07-03,Darwin,DARNALL,1900-01-01 19:44:00,1900-01-01 19:44:30,19:44:00,19:44:00,1900-01-01 19:49:00,1900-01-01 19:49:00,2,True,True,0.5,DARNALL,Darnall,53.38458258664582,-1.412567053478687,4.5,5.0
202407037132001,G32001,2024-07-03,Darwin,WDHOUSE,1900-01-01 19:49:00,1900-01-01 19:49:30,19:49:00,19:49:00,1900-01-01 19:54:00,1900-01-01 19:54:00,1,True,True,0.5,WDHOUSE,Woodhouse,53.36374206086562,-1.357553410864124,4.5,5.0
202407037132001,G32001,2024-07-03,Darwin,KVTNBDG,1900-01-01 19:55:30,1900-01-01 19:56:00,19:56:00,19:56:00,1900-01-01 20:00:00,1900-01-01 20:01:00,1,True,True,0.5,KVTNBDG,Kiveton Bridge,53.34095627002981,-1.2671793497150694,5.0,4.5
202407037132001,G32001,2024-07-03,Darwin,KVTNPK,1900-01-01 19:58:30,1900-01-01 19:59:00,19:59:00,19:59:00,1900-01-01 20:03:00,1900-01-01 20:04:00,1,True,True,0.5,KVTNPK,Kiveton Park,53.336713376507014,-1.239844493564994,5.0,4.5
202407037132001,G32001,2024-07-03,Darwin,SHRKSKS,1900-01-01 20:03:30,1900-01-01 20:04:00,20:04:00,20:04:00,1900-01-01 20:08:00,1900-01-01 20:09:00,1,True,True,0.5,SHRKSKS,Shireoaks,53.32477327772096,-1.1679908966294072,5.0,4.5
202407037132001,G32001,2024-07-03,Darwin,WORKSOP,1900-01-01 20:08:00,1900-01-01 20:09:00,20:08:00,20:09:00,1900-01-01 20:13:00,1900-01-01 20:14:00,2,True,True,1.0,WORKSOP,Worksop,53.31150533643908,-1.122771233339336,5.0,5.0
202407037132001,G32001,2024-07-03,Darwin,RTFDLL,1900-01-01 20:18:00,1900-01-01 20:19:00,20:18:00,20:19:00,1900-01-01 20:23:00,1900-01-01 20:24:00,4,True,True,1.0,RTFDLL,Retford Low Level,53.31406414859812,-0.9447735937790931,5.0,5.0
202407037132001,G32001,2024-07-03,Darwin,GBGHLRD,1900-01-01 20:33:00,1900-01-01 20:34:00,20:33:00,20:34:00,1900-01-01 20:36:00,1900-01-01 20:37:00,1,True,True,1.0,GBGHLRD,Gainsborough Lea Road,53.386087483424234,-0.7685795169967168,3.0,3.0
202407037132001,G32001,2024-07-03,Darwin,SAXILBY,1900-01-01 20:45:00,1900-01-01 20:45:30,20:45:00,20:45:00,1900-01-01 20:48:00,1900-01-01 20:48:00,1,True,True,0.5,SAXILBY,Saxilby,53.26720285669435,-0.6640395065896323,2.5,3.0
202407037147934,G47934,2024-07-03,Darwin,ALEXNDP,1900-01-01 19:44:30,1900-01-01 19:45:00,,,1900-01-01 20:02:00,1900-01-01 20:02:00,1,True,True,0.5,ALEXNDP,Alexandra Palace,51.59792229995968,-0.12023517728272679,17.0,17.5
202407038099747,P99747,2024-07-03,Darwin,CNTBW1,1900-01-01 18:06:00,1900-01-01 18:11:00,,,1900-01-01 19:46:00,1900-01-01 19:47:00,,True,True,5.0,,CNTBW1,,,96.0,100.0
202407038099747,P99747,2024-07-03,Darwin,CNTBWGL,1900-01-01 18:13:00,1900-01-01 18:26:00,,,1900-01-01 19:49:00,1900-01-01 19:50:00,,True,True,13.0,,CNTBWGL,,,84.0,96.0
202407037148853,G48853,2024-07-03,Darwin,PBRO458,1900-01-01 18:41:00,1900-01-01 18:41:00,,,1900-01-01 19:46:00,1900-01-01 19:46:00,,True,True,0.0,,PBRO458,,,65.0,65.0
202407037143725,G43725,2024-07-03,Darwin,CHRDJSB,1900-01-01 18:54:30,1900-01-01 19:22:00,,,1900-01-01 19:44:00,1900-01-01 19:45:00,,True,True,27.5,,CHRDJSB,,,23.0,49.5
202407037143725,G43725,2024-07-03,Darwin,YOVILPM,1900-01-01 19:42:00,1900-01-01 19:51:00,,,1900-01-01 20:03:00,1900-01-01 20:04:00,1,True,True,9.0,YOVILPM,Yeovil Pen Mill,50.944524921016935,-2.6134281016607943,13.0,21.0
202407037143725,G43725,2024-07-03,Darwin,CCARY,1900-01-01 20:04:30,1900-01-01 20:39:00,,,1900-01-01 20:18:00,1900-01-01 20:19:00,3,True,True,34.5,CCARY,Castle Cary,51.09981307412346,-2.522794283772196,,13.5
202407037143725,G43725,2024-07-03,Darwin,CHRDJSB,1900-01-01 21:09:00,1900-01-01 21:15:00,,,1900-01-01 20:49:00,1900-01-01 20:50:00,,True,True,6.0,,CHRDJSB,,,,
202407037143725,G43725,2024-07-03,Darwin,HONITON,1900-01-01 21:30:00,1900-01-01 21:57:30,,,1900-01-01 21:05:00,1900-01-01 21:06:00,1,True,True,27.5,HONITON,Honiton,50.79657942074041,-3.186717773592634,,
202407037143725,G43725,2024-07-03,Darwin,EXETRSD,1900-01-01 22:14:30,1900-01-01 22:18:30,,,1900-01-01 21:23:00,1900-01-01 21:24:00,3,True,True,4.0,EXETRSD,Exeter St Davids,50.729273158876744,-3.54328609006847,,
202407037143725,G43725,2024-07-03,Darwin,EXET679,1900-01-01 22:19:30,1900-01-01 22:22:30,,,1900-01-01 21:25:00,1900-01-01 21:26:00,,True,True,3.0,,EXET679,,,,
202407037147884,G47884,2024-07-03,Darwin,FNPK,1900-01-01 19:43:30,1900-01-01 19:45:00,,,1900-01-01 19:55:00,1900-01-01 19:56:00,8,True,True,1.5,FNPK,Finsbury Park,51.564300075195725,-0.10628493630044492,11.0,11.5
202407037147884,G47884,2024-07-03,Darwin,HRNSDRS,1900-01-01 19:49:00,1900-01-01 19:56:00,,,1900-01-01 20:00:00,1900-01-01 20:01:00,,True,True,7.0,,HRNSDRS,,,5.0,11.0
202407037147884,G47884,2024-07-03,Darwin,HRGYURV,1900-01-01 20:00:00,1900-01-01 20:07:00,,,1900-01-01 20:05:00,1900-01-01 20:06:00,,True,True,7.0,,HRGYURV,,,,5.0
202407037143644,G43644,2024-07-03,Darwin,WEYMJS,1900-01-01 18:53:00,1900-01-01 18:56:00,,,1900-01-01 19:47:00,1900-01-01 19:48:00,,True,True,3.0,,WEYMJS,,,52.0,54.0
202407037132435,G32435,2024-07-03,Darwin,BARELA,1900-01-01 19:47:30,1900-01-01 19:48:30,19:48:00,19:48:00,1900-01-01 19:51:00,1900-01-01 19:51:00,1,True,True,1.0,BARELA,Bare Lane,54.07453982599619,-2.8353303489486894,2.5,3.5
202407038088682,P88682,2024-07-03,Darwin,HORS410,1900-01-01 18:57:00,1900-01-01 19:02:00,,,1900-01-01 19:46:00,1900-01-01 19:47:00,,True,True,5.0,,HORS410,,,45.0,49.0
202407038088682,P88682,2024-07-03,Darwin,HORSHAM,1900-01-01 19:04:00,1900-01-01 19:04:00,,,1900-01-01 19:49:00,1900-01-01 19:49:00,3,True,True,0.0,HORSHAM,Horsham,51.06606325684371,-0.31926945149913594,45.0,45.0
202407037662823,L62823,2024-07-03,Darwin,CLPHMYM,1900-01-01 19:39:00,1900-01-01 19:48:00,,,1900-01-01 19:44:00,1900-01-01 19:45:00,,True,True,9.0,,CLPHMYM,,,,5.0
202407037670534,L70534,2024-07-03,Darwin,WARE,1900-01-01 19:28:00,1900-01-01 19:28:30,19:28:00,19:28:00,1900-01-01 20:06:00,1900-01-01 20:07:00,1,True,True,0.5,WARE,Ware,51.80795869870827,-0.028781343855874955,38.5,38.0
202407037670534,L70534,2024-07-03,Darwin,SMARGRT,1900-01-01 19:31:30,1900-01-01 19:32:30,19:32:00,19:32:00,1900-01-01 20:10:00,1900-01-01 20:10:00,1,True,True,1.0,SMARGRT,St Margarets (Herts),51.78783884197916,0.0012691748423917842,37.5,38.5
202407037670534,L70534,2024-07-03,Darwin,RYEHOUS,1900-01-01 19:35:00,1900-01-01 19:37:00,19:35:00,19:37:00,1900-01-01 20:13:00,1900-01-01 20:14:00,1,True,True,2.0,RYEHOUS,Rye House,51.769411221643935,0.005628210477942993,37.0,38.0
202407038098929,P98929,2024-07-03,Darwin,FAV4352,1900-01-01 17:44:00,1900-01-01 17:52:00,,,1900-01-01 19:46:00,1900-01-01 19:47:00,,True,True,8.0,,FAV4352,,,115.0,122.0
202407036765061,C65061,2024-07-03,Darwin,SNDRLND,1900-01-01 18:40:30,1900-01-01 18:41:00,18:41:00,18:41:00,1900-01-01 19:44:00,1900-01-01 19:44:00,3,True,True,0.5,SNDRLND,Sunderland,54.90533814401926,-1.3823042459910266,63.0,63.5
202407036765061,C65061,2024-07-03,Darwin,SNDRMNK,1900-01-01 18:42:00,1900-01-01 18:42:30,18:42:00,18:42:00,1900-01-01 19:45:00,1900-01-01 19:46:00,,True,True,0.5,SNDRMNK,St Peters,54.911438567967195,-1.3838018915515635,63.5,63.0
202407036765061,C65061,2024-07-03,Darwin,STDI,1900-01-01 18:43:30,1900-01-01 18:44:00,18:44:00,18:44:00,1900-01-01 19:47:00,1900-01-01 19:47:00,,True,True,0.5,,STDI,,,63.0,63.5
202407036765061,C65061,2024-07-03,Darwin,SEABURN,1900-01-01 18:45:30,1900-01-01 18:46:00,18:46:00,18:46:00,1900-01-01 19:49:00,1900-01-01 19:49:00,,True,True,0.5,SEABURN,Seaburn,54.92953391796904,-1.3866932934099372,63.0,63.5
202407036765061,C65061,2024-07-03,Darwin,EBOLDON,1900-01-01 18:49:00,1900-01-01 18:49:30,18:49:00,18:49:00,1900-01-01 19:52:00,1900-01-01 19:53:00,,True,True,0.5,EBOLDON,East Boldon,54.94641352696168,-1.4203138734150533,63.5,63.0
202407036765061,C65061,2024-07-03,Darwin,BRWHINS,1900-01-01 18:52:30,1900-01-01 18:53:00,18:53:00,18:53:00,1900-01-01 19:56:00,1900-01-01 19:56:00,,True,True,0.5,BRWHINS,Brockley Whins,54.95954252782653,-1.4613532291685132,63.0,63.5
202407036765061,C65061,2024-07-03,Darwin,FELL,1900-01-01 18:54:30,1900-01-01 18:55:00,18:55:00,18:55:00,1900-01-01 19:58:00,1900-01-01 19:58:00,,True,True,0.5,,FELL,,,63.0,63.5
202407036765061,C65061,2024-07-03,Darwin,PELAWTW,1900-01-01 19:01:00,1900-01-01 19:01:30,19:01:00,19:01:00,1900-01-01 20:03:00,1900-01-01 20:04:00,,True,True,0.5,,PELAWTW,,,62.5,62.0
202407036765061,C65061,2024-07-03,Darwin,HEWOMTR,1900-01-01 19:03:00,1900-01-01 19:04:00,19:03:00,19:04:00,1900-01-01 20:05:00,1900-01-01 20:06:00,,True,True,1.0,,HEWOMTR,,,62.0,62.0
202407036765061,C65061,2024-07-03,Darwin,NWCSTLL,1900-01-01 19:10:30,1900-01-01 19:11:00,19:11:00,19:11:00,1900-01-01 20:13:00,1900-01-01 20:13:00,,True,True,0.5,,NWCSTLL,,,62.0,62.5
202407037670559,L70559,2024-07-03,Darwin,CHESHNT,1900-01-01 20:16:00,1900-01-01 20:16:30,20:16:00,20:16:00,1900-01-01 20:24:00,1900-01-01 20:25:00,1,True,True,0.5,CHESHNT,Cheshunt,51.7028744963545,-0.023959682514643223,8.5,8.0
202407037670559,L70559,2024-07-03,Darwin,WALHAMX,1900-01-01 20:18:30,1900-01-01 20:19:00,20:19:00,20:19:00,1900-01-01 20:27:00,1900-01-01 20:27:00,1,True,True,0.5,WALHAMX,Waltham Cross,51.68505928571828,-0.026558355694543657,8.0,8.5
202407037670559,L70559,2024-07-03,Darwin,TTNHMHL,1900-01-01 20:27:00,1900-01-01 20:28:00,20:27:00,20:27:00,1900-01-01 20:34:00,1900-01-01 20:35:00,3,True,True,1.0,TTNHMHL,Tottenham Hale,51.58830814602769,-0.059929144588349484,7.0,7.0
202407037670559,L70559,2024-07-03,Darwin,LEABDGE,1900-01-01 20:31:30,1900-01-01 20:32:00,20:31:00,20:31:00,1900-01-01 20:38:00,1900-01-01 20:39:00,1,True,True,0.5,LEABDGE,Lea Bridge,51.56654610341239,-0.03667256821623587,7.0,6.5
202407037670270,L70270,2024-07-03,Darwin,LEABDGE,1900-01-01 20:51:30,1900-01-01 20:52:00,20:52:00,20:52:00,1900-01-01 20:52:00,1900-01-01 20:52:00,2,True,True,0.5,LEABDGE,Lea Bridge,51.56654610341239,-0.03667256821623587,,0.5
202407037670270,L70270,2024-07-03,Darwin,TTNHMHL,1900-01-01 20:55:00,1900-01-01 20:56:00,20:55:00,20:56:00,1900-01-01 20:55:00,1900-01-01 20:56:00,2,True,True,1.0,TTNHMHL,Tottenham Hale,51.58830814602769,-0.059929144588349484,,
202407037670270,L70270,2024-07-03,Darwin,NMBRLPK,1900-01-01 20:57:30,1900-01-01 20:58:00,20:58:00,20:58:00,1900-01-01 20:58:00,1900-01-01 20:58:00,2,True,True,0.5,NMBRLPK,Northumberland Park,51.60196736870787,-0.05393188337498378,,0.5
202407036765044,C65044,2024-07-03,Darwin,SNDRLND,1900-01-01 18:08:30,1900-01-01 18:09:00,18:09:00,18:09:00,1900-01-01 19:44:00,1900-01-01 19:44:00,2,True,True,0.5,SNDRLND,Sunderland,54.90533814401926,-1.3823042459910266,95.0,95.5
202407036765044,C65044,2024-07-03,Darwin,CIVI,1900-01-01 18:10:00,1900-01-01 18:13:30,18:10:00,18:13:00,1900-01-01 19:45:00,1900-01-01 19:46:00,1,True,True,3.5,,CIVI,,,92.5,95.0
202407036765044,C65044,2024-07-03,Darwin,UNIV,1900-01-01 18:14:00,1900-01-01 18:14:30,18:14:00,18:14:00,1900-01-01 19:47:00,1900-01-01 19:47:00,,True,True,0.5,,UNIV,,,92.5,93.0
202407036765044,C65044,2024-07-03,Darwin,MLLF,1900-01-01 18:15:30,1900-01-01 18:16:00,18:16:00,18:16:00,1900-01-01 19:48:00,1900-01-01 19:49:00,,True,True,0.5,,MLLF,,,93.0,92.5
202407036765044,C65044,2024-07-03,Darwin,PALL,1900-01-01 18:17:30,1900-01-01 18:18:00,18:18:00,18:18:00,1900-01-01 19:50:00,1900-01-01 19:51:00,,True,True,0.5,,PALL,,,93.0,92.5
202407038092106,P92106,2024-07-03,Darwin,NEWXGEL,1900-01-01 18:56:00,1900-01-01 18:57:00,,,1900-01-01 19:44:00,1900-01-01 19:45:00,1,True,True,1.0,NEWXGEL,New Cross Gate ELL,51.47512677567174,-0.04041334317043049,48.0,48.0
202407037149482,G49482,2024-07-03,Darwin,STALBCS,1900-01-01 18:56:00,1900-01-01 19:04:00,,,1900-01-01 19:46:00,1900-01-01 19:47:00,,True,True,8.0,,STALBCS,,,43.0,50.0
202407037148720,G48720,2024-07-03,Darwin,STALBCS,1900-01-01 19:11:00,1900-01-01 19:19:00,,,1900-01-01 19:46:00,1900-01-01 19:47:00,,True,True,8.0,,STALBCS,,,28.0,35.0
202407037148711,G48711,2024-07-03,Darwin,STALBCS,1900-01-01 17:41:00,1900-01-01 17:49:00,,,1900-01-01 19:46:00,1900-01-01 19:47:00,,True,True,8.0,,STALBCS,,,118.0,125.0
202407037149485,G49485,2024-07-03,Darwin,STALBCS,1900-01-01 19:26:00,1900-01-01 19:34:00,,,1900-01-01 19:46:00,1900-01-01 19:47:00,,True,True,8.0,,STALBCS,,,13.0,20.0
202407037149476,G49476,2024-07-03,Darwin,STALBCS,1900-01-01 17:56:00,1900-01-01 18:04:00,,,1900-01-01 19:46:00,1900-01-01 19:47:00,,True,True,8.0,,STALBCS,,,103.0,110.0
202407038083702,P83702,2024-07-03,Darwin,CWDN941,1900-01-01 19:25:00,1900-01-01 19:30:00,,,1900-01-01 19:45:00,1900-01-01 19:46:00,,True,True,5.0,,CWDN941,,,16.0,20.0
202407037131705,G31705,2024-07-03,Darwin,WRGTCCS,1900-01-01 19:34:30,1900-01-01 19:38:30,,,1900-01-01 19:45:00,1900-01-01 19:46:00,,True,True,4.0,,WRGTCCS,,,7.5,10.5
202407036705133,C05133,2024-07-03,Darwin,PLMD818,1900-01-01 18:14:00,1900-01-01 18:14:00,,,1900-01-01 19:49:00,1900-01-01 19:49:00,,True,True,0.0,,PLMD818,,,95.0,95.0
202407037148717,G48717,2024-07-03,Darwin,STALBCS,1900-01-01 18:41:00,1900-01-01 18:49:00,,,1900-01-01 19:46:00,1900-01-01 19:47:00,,True,True,8.0,,STALBCS,,,58.0,65.0
202407037148723,G48723,2024-07-03,Darwin,STALBCS,1900-01-01 19:40:00,1900-01-01 19:49:00,,,1900-01-01 19:46:00,1900-01-01 19:47:00,,True,True,9.0,,STALBCS,,,,6.0
202407036738244,C38244,2024-07-03,Darwin,KTON,1900-01-01 18:44:30,1900-01-01 18:45:00,18:45:00,18:45:00,1900-01-01 19:46:00,1900-01-01 19:46:00,1,True,True,0.5,KTON,Kenton,51.58179984130422,-0.31698088367761995,61.0,61.5
202407036738244,C38244,2024-07-03,Darwin,SKENTON,1900-01-01 18:46:30,1900-01-01 18:47:00,18:47:00,18:47:00,1900-01-01 19:48:00,1900-01-01 19:48:00,1,True,True,0.5,SKENTON,South Kenton,51.570212276221774,-0.3084624002610995,61.0,61.5
202407036738244,C38244,2024-07-03,Darwin,NWEMBLY,1900-01-01 18:48:30,1900-01-01 18:49:00,18:49:00,18:49:00,1900-01-01 19:50:00,1900-01-01 19:50:00,1,True,True,0.5,NWEMBLY,North Wembley,51.56259414690466,-0.30398407438141134,61.0,61.5
202407036738244,C38244,2024-07-03,Darwin,WMBYDC,1900-01-01 18:50:30,1900-01-01 18:51:00,18:51:00,18:51:00,1900-01-01 19:52:00,1900-01-01 19:52:00,2,True,True,0.5,WMBYDC,Wembley Central,51.55232328504496,-0.29641840570032507,61.0,61.5
202407036738244,C38244,2024-07-03,Darwin,STNBGPK,1900-01-01 18:54:00,1900-01-01 18:54:30,18:54:00,18:54:00,1900-01-01 19:55:00,1900-01-01 19:56:00,1,True,True,0.5,STNBGPK,Stonebridge Park,51.544109297943415,-0.2758283843034659,61.5,61.0
202407036738244,C38244,2024-07-03,Darwin,HARLSDN,1900-01-01 18:56:30,1900-01-01 18:57:00,18:57:00,18:57:00,1900-01-01 19:58:00,1900-01-01 19:58:00,1,True,True,0.5,HARLSDN,Harlesden,51.536287440601605,-0.25766753012443244,61.0,61.5
202407036738244,C38244,2024-07-03,Darwin,WLSDNJL,1900-01-01 18:58:30,1900-01-01 18:59:00,18:59:00,18:59:00,1900-01-01 20:00:00,1900-01-01 20:00:00,1,True,True,0.5,WLSDNJL,Willesden Junction Low Level,51.53202614197503,-0.2432682798041903,61.0,61.5
202407036738244,C38244,2024-07-03,Darwin,KENSLG,1900-01-01 19:01:00,1900-01-01 19:01:30,19:01:00,19:01:00,1900-01-01 20:02:00,1900-01-01 20:03:00,1,True,True,0.5,KENSLG,Kensal Green,51.53053850642573,-0.22508762025614396,61.5,61.0
202407036738244,C38244,2024-07-03,Darwin,QPRK,1900-01-01 19:06:30,1900-01-01 19:08:00,19:07:00,,1900-01-01 20:08:00,,2,True,True,1.5,QPRK,Queens Park (London),51.53396447272617,-0.20498481179665223,,61.5
202407047154179,G54179,2024-07-04,CIS,ECROYDN,1900-01-01 02:09:00,1900-01-01 02:10:30,02:09:00,02:10:00,1900-01-01 02:15:00,1900-01-01 02:16:00,1,True,True,1.5,ECROYDN,East Croydon,51.37545209915211,-0.09277965882775273,5.5,6.0
202407047154179,G54179,2024-07-04,CIS,BLFR,1900-01-01 02:32:30,1900-01-01 02:36:30,02:36:00,02:36:00,1900-01-01 02:38:00,1900-01-01 02:38:00,2,True,True,4.0,BLFR,London Blackfriars,51.511808029828224,-0.10333203061481108,1.5,5.5
202407047154179,G54179,2024-07-04,CIS,CTMSLNK,1900-01-01 02:37:30,1900-01-01 02:38:30,,,1900-01-01 02:39:00,1900-01-01 02:40:00,1,True,True,1.0,CTMSLNK,City Thameslink,51.51393443658694,-0.10358960144307615,1.5,1.5
202407047154179,G54179,2024-07-04,CIS,STPXBOX,1900-01-01 02:43:00,1900-01-01 02:44:00,02:43:00,02:44:00,1900-01-01 02:45:00,1900-01-01 02:46:00,B,True,True,1.0,STPXBOX,London St Pancras International LL,51.53216621968029,-0.1273427017223623,2.0,2.0
202407047154179,G54179,2024-07-04,CIS,KNTSHTN,1900-01-01 02:48:00,1900-01-01 02:48:30,02:48:00,02:48:00,1900-01-01 02:50:00,1900-01-01 02:50:00,2,True,True,0.5,KNTSHTN,Kentish Town,51.550493204133055,-0.14036494555033927,1.5,2.0
202407047154179,G54179,2024-07-04,CIS,WHMPSTM,1900-01-01 02:52:00,1900-01-01 02:52:30,02:52:00,02:52:00,1900-01-01 02:54:00,1900-01-01 02:54:00,4,True,True,0.5,WHMPSTM,West Hampstead Thameslink,51.548474138050466,-0.19183687482396922,1.5,2.0
202407047154179,G54179,2024-07-04,CIS,CRKLWD,1900-01-01 02:54:30,1900-01-01 02:56:00,02:55:00,02:56:00,1900-01-01 02:55:00,1900-01-01 02:56:00,4,True,True,1.5,CRKLWD,Cricklewood,51.5584512624468,-0.21267659084976767,,0.5
202407047154179,G54179,2024-07-04,CIS,BRENTX,1900-01-01 02:57:30,1900-01-01 02:58:00,02:58:00,02:58:00,1900-01-01 02:58:00,1900-01-01 02:58:00,4,True,True,0.5,,BRENTX,,,,0.5
202407047154179,G54179,2024-07-04,CIS,HDON,1900-01-01 02:59:30,1900-01-01 03:00:00,03:00:00,03:00:00,1900-01-01 03:00:00,1900-01-01 03:00:00,4,True,True,0.5,HDON,Hendon,51.58006625932566,-0.2386740967376182,,0.5
202407047154179,G54179,2024-07-04,CIS,MLHB,1900-01-01 03:02:30,1900-01-01 03:03:00,03:03:00,03:03:00,1900-01-01 03:03:00,1900-01-01 03:03:00,4,True,True,0.5,MLHB,Mill Hill Broadway,51.6130910957873,-0.24923967588388818,,0.5
202407047154179,G54179,2024-07-04,CIS,ELTR,1900-01-01 03:06:30,1900-01-01 03:07:30,03:07:00,03:07:00,1900-01-01 03:07:00,1900-01-01 03:07:00,4,True,True,1.0,ELTR,Elstree & Borehamwood,51.65306766256587,-0.2800814937297041,,0.5
202407047154179,G54179,2024-07-04,CIS,RADLETT,1900-01-01 03:11:00,1900-01-01 03:11:30,03:11:00,03:11:00,1900-01-01 03:11:00,1900-01-01 03:11:00,4,True,True,0.5,RADLETT,Radlett,51.68518629252201,-0.31724373152153196,,
202407047154179,G54179,2024-07-04,CIS,STALBCY,1900-01-01 03:17:00,1900-01-01 03:18:30,03:17:00,03:18:00,1900-01-01 03:17:00,1900-01-01 03:18:00,4,True,True,1.5,STALBCY,St Albans City,51.75047146780483,-0.3275382571633064,,
202407047154179,G54179,2024-07-04,CIS,HRPNDN,1900-01-01 03:24:00,1900-01-01 03:24:30,03:24:00,03:24:00,1900-01-01 03:24:00,1900-01-01 03:24:00,4,True,True,0.5,HRPNDN,Harpenden,51.81464320534835,-0.35148047993733933,,
202407047154179,G54179,2024-07-04,CIS,LUTOAPY,1900-01-01 03:29:00,1900-01-01 03:30:00,03:29:00,03:30:00,1900-01-01 03:29:00,1900-01-01 03:30:00,4,True,True,1.0,LUTOAPY,Luton Airport Parkway,51.87243587338223,-0.39588096350906565,,
202407047154179,G54179,2024-07-04,CIS,LUTON,1900-01-01 03:33:00,1900-01-01 03:34:30,03:33:00,03:34:00,1900-01-01 03:33:00,1900-01-01 03:34:00,5,True,True,1.5,LUTON,Luton,51.882303167755396,-0.41404016809500005,,
202407047154179,G54179,2024-07-04,CIS,LEAGRVE,1900-01-01 03:38:00,1900-01-01 03:38:30,03:38:00,03:38:00,1900-01-01 03:38:00,1900-01-01 03:38:00,4,True,True,0.5,LEAGRVE,Leagrave,51.905157310725386,-0.4585025979419626,,
202407047154179,G54179,2024-07-04,CIS,HRLG,1900-01-01 03:42:30,1900-01-01 03:43:00,03:43:00,03:43:00,1900-01-01 03:43:00,1900-01-01 03:43:00,4,True,True,0.5,HRLG,Harlington (Beds),51.9620603772902,-0.4956898852912933,,0.5
202407047154179,G54179,2024-07-04,CIS,FLITWCK,1900-01-01 03:46:30,1900-01-01 03:47:00,03:47:00,03:47:00,1900-01-01 03:47:00,1900-01-01 03:47:00,4,True,True,0.5,FLITWCK,Flitwick,52.003640384691415,-0.49525781675140085,,0.5
202407047147059,G47059,2024-07-04,TD,ASHWELC,1900-01-01 02:11:00,1900-01-01 02:11:30,02:11:00,02:11:00,1900-01-01 02:15:00,1900-01-01 02:16:00,2,True,True,0.5,ASHWELC,Ashwell & Morden,52.030770468721315,-0.10978887432333159,4.5,4.0
202407047147059,G47059,2024-07-04,CIS,ASHWELC,1900-01-01 02:11:00,1900-01-01 02:11:30,02:11:00,02:11:00,1900-01-01 02:15:00,1900-01-01 02:16:00,2,True,True,0.5,ASHWELC,Ashwell & Morden,52.030770468721315,-0.10978887432333159,4.5,4.0
202407037154204,G54204,2024-07-03,TD,HYWRDSH,1900-01-01 02:13:00,1900-01-01 02:14:00,02:13:00,02:14:00,1900-01-01 02:17:00,1900-01-01 02:18:00,2,True,True,1.0,HYWRDSH,Haywards Heath,51.005679970800635,-0.10507774098483114,4.0,4.0
202407037154146,G54146,2024-07-03,TD,STNEOTS,1900-01-01 02:06:30,1900-01-01 02:07:30,02:07:00,02:07:00,1900-01-01 02:11:00,1900-01-01 02:11:00,1,True,True,1.0,STNEOTS,St Neots,52.23156593047183,-0.24741386519461261,3.5,4.5
202407037154146,G54146,2024-07-03,TD,HNTNGDN,1900-01-01 02:14:00,1900-01-01 02:15:00,02:14:00,02:15:00,1900-01-01 02:18:00,1900-01-01 02:19:00,3,True,True,1.0,HNTNGDN,Huntingdon,52.328647289426556,-0.19206801295981024,4.0,4.0
202407047154179,G54179,2024-07-04,CIS,MLHB,1900-01-01 03:02:30,1900-01-01 03:03:00,03:03:00,03:03:00,1900-01-01 03:11:00,1900-01-01 03:11:00,4,True,True,0.5,MLHB,Mill Hill Broadway,51.6130910957873,-0.24923967588388818,8.0,8.5
202407047154179,G54179,2024-07-04,CIS,ELTR,1900-01-01 03:06:30,1900-01-01 03:07:30,03:07:00,03:07:00,1900-01-01 03:15:00,1900-01-01 03:15:00,4,True,True,1.0,ELTR,Elstree & Borehamwood,51.65306766256587,-0.2800814937297041,7.5,8.5
202407047154179,G54179,2024-07-04,CIS,RADLETT,1900-01-01 03:11:00,1900-01-01 03:11:30,03:11:00,03:11:00,1900-01-01 03:19:00,1900-01-01 03:19:00,4,True,True,0.5,RADLETT,Radlett,51.68518629252201,-0.31724373152153196,7.5,8.0
202407047154179,G54179,2024-07-04,CIS,STALBCY,1900-01-01 03:17:00,1900-01-01 03:18:30,03:17:00,03:18:00,1900-01-01 03:24:00,1900-01-01 03:25:00,4,True,True,1.5,STALBCY,St Albans City,51.75047146780483,-0.3275382571633064,6.5,7.0
202407047154179,G54179,2024-07-04,CIS,HRPNDN,1900-01-01 03:24:00,1900-01-01 03:24:30,03:24:00,03:24:00,1900-01-01 03:30:00,1900-01-01 03:31:00,4,True,True,0.5,HRPNDN,Harpenden,51.81464320534835,-0.35148047993733933,6.5,6.0
202407047154179,G54179,2024-07-04,CIS,LUTOAPY,1900-01-01 03:29:00,1900-01-01 03:30:00,03:29:00,03:30:00,1900-01-01 03:35:00,1900-01-01 03:36:00,4,True,True,1.0,LUTOAPY,Luton Airport Parkway,51.87243587338223,-0.39588096350906565,6.0,6.0
202407047154179,G54179,2024-07-04,CIS,LUTON,1900-01-01 03:33:00,1900-01-01 03:34:30,03:33:00,03:34:00,1900-01-01 03:38:00,1900-01-01 03:39:00,5,True,True,1.5,LUTON,Luton,51.882303167755396,-0.41404016809500005,4.5,5.0
202407047154179,G54179,2024-07-04,CIS,LEAGRVE,1900-01-01 03:38:00,1900-01-01 03:38:30,03:38:00,03:38:00,1900-01-01 03:43:00,1900-01-01 03:43:00,4,True,True,0.5,LEAGRVE,Leagrave,51.905157310725386,-0.4585025979419626,4.5,5.0
202407047154179,G54179,2024-07-04,CIS,HRLG,1900-01-01 03:42:30,1900-01-01 03:43:00,03:43:00,03:43:00,1900-01-01 03:47:00,1900-01-01 03:48:00,4,True,True,0.5,HRLG,Harlington (Beds),51.9620603772902,-0.4956898852912933,5.0,4.5
202407047154179,G54179,2024-07-04,CIS,FLITWCK,1900-01-01 03:46:30,1900-01-01 03:47:00,03:47:00,03:47:00,1900-01-01 03:51:00,1900-01-01 03:52:00,4,True,True,0.5,FLITWCK,Flitwick,52.003640384691415,-0.49525781675140085,5.0,4.5
202407046743290,C43290,2024-07-04,CIS,YORK,1900-01-01 01:29:00,1900-01-01 01:37:30,,,1900-01-01 03:09:00,1900-01-01 03:10:00,9,True,True,8.5,YORK,York,53.95796429981637,-1.0931820859124586,92.5,100.0
202407047147850,G47850,2024-07-04,Darwin,LTCEADL,1900-01-01 01:41:00,1900-01-01 01:42:00,,,1900-01-01 03:09:00,1900-01-01 03:10:00,1,True,True,1.0,,LTCEADL,,,88.0,88.0
202407047147850,G47850,2024-07-04,Darwin,LTCEREC,1900-01-01 01:49:00,1900-01-01 01:56:00,,,1900-01-01 03:17:00,1900-01-01 03:18:00,,True,True,7.0,,LTCEREC,,,82.0,88.0
202407047147848,G47848,2024-07-04,Darwin,LTCEADL,1900-01-01 01:07:00,1900-01-01 01:08:00,,,1900-01-01 03:09:00,1900-01-01 03:10:00,1,True,True,1.0,,LTCEADL,,,122.0,122.0
202407047147848,G47848,2024-07-04,Darwin,LTCEREC,1900-01-01 01:15:00,1900-01-01 01:22:00,,,1900-01-01 03:17:00,1900-01-01 03:18:00,,True,True,7.0,,LTCEREC,,,116.0,122.0
202407048624813,V24813,2024-07-04,Darwin,CHST527,1900-01-01 01:50:30,1900-01-01 01:55:30,,,1900-01-01 03:10:00,1900-01-01 03:11:00,,True,True,5.0,,CHST527,,,75.5,79.5
202407048624813,V24813,2024-07-04,Darwin,CHST,1900-01-01 01:56:30,1900-01-01 01:58:30,,,1900-01-01 03:12:00,1900-01-01 03:13:00,UDG,True,True,2.0,CHST,Chester,53.196693516327784,-2.879593468552215,74.5,75.5
202407038089060,P89060,2024-07-03,Darwin,GTWK,1900-01-01 00:36:00,1900-01-01 00:46:00,,,1900-01-01 03:17:00,1900-01-01 03:18:00,,True,True,10.0,GTWK,Gatwick Airport,51.15648901918074,-0.16104149227569897,152.0,161.0
202407038089060,P89060,2024-07-03,Darwin,REDHILL,1900-01-01 00:56:00,1900-01-01 01:03:00,,,1900-01-01 03:27:00,1900-01-01 03:28:00,2,True,True,7.0,REDHILL,Redhill,51.24019941584228,-0.16589991509185212,145.0,151.0
202407038092390,P92390,2024-07-03,Darwin,QPRK,1900-01-01 00:11:00,1900-01-01 00:17:00,,,1900-01-01 03:13:00,1900-01-01 03:14:00,4,True,True,6.0,QPRK,Queens Park (London),51.53396447272617,-0.20498481179665223,177.0,182.0
202407038092390,P92390,2024-07-03,Darwin,WLSDNJL,1900-01-01 00:22:30,1900-01-01 00:28:00,,,1900-01-01 03:17:00,1900-01-01 03:18:00,2,True,True,5.5,WLSDNJL,Willesden Junction Low Level,51.53202614197503,-0.2432682798041903,170.0,174.5
202407046743235,C43235,2024-07-04,Darwin,YORK656,1900-01-01 01:16:30,1900-01-01 01:19:30,,,1900-01-01 03:11:00,1900-01-01 03:12:00,,True,True,3.0,,YORK656,,,112.5,114.5
202407047148453,G48453,2024-07-04,Darwin,CRKLWD,1900-01-01 00:53:30,1900-01-01 00:55:00,,,1900-01-01 03:09:00,1900-01-01 03:10:00,2,True,True,1.5,CRKLWD,Cricklewood,51.5584512624468,-0.21267659084976767,135.0,135.5
202407047147847,G47847,2024-07-04,Darwin,LTCEADL,1900-01-01 00:07:00,1900-01-01 00:24:00,,,1900-01-01 03:09:00,1900-01-01 03:10:00,1,True,True,17.0,,LTCEADL,,,166.0,182.0
202407047147847,G47847,2024-07-04,Darwin,LTCEREC,1900-01-01 00:31:00,1900-01-01 00:38:00,,,1900-01-01 03:17:00,1900-01-01 03:18:00,,True,True,7.0,,LTCEREC,,,160.0,166.0
202407048083259,P83259,2024-07-04,Darwin,HAYMRKT,1900-01-01 01:53:00,1900-01-01 01:53:30,,,1900-01-01 03:12:00,1900-01-01 03:13:00,1,True,True,0.5,HAYMRKT,Haymarket,55.94580631761191,-3.218449357526911,79.5,79.0
202407047513589,K13589,2024-07-04,Darwin,KETR,1900-01-01 02:08:00,1900-01-01 02:10:00,,,1900-01-01 03:09:00,1900-01-01 03:10:00,1,True,True,2.0,KETR,Kettering,52.393553333440025,-0.7315622113389392,60.0,61.0
202407047513589,K13589,2024-07-04,Darwin,WLNGBRO,1900-01-01 02:23:30,1900-01-01 02:25:30,,,1900-01-01 03:17:00,1900-01-01 03:18:00,4,True,True,2.0,WLNGBRO,Wellingborough,52.30378102256156,-0.6766508786563786,52.5,53.5
202407047513589,K13589,2024-07-04,Darwin,BEDFDM,1900-01-01 02:43:00,1900-01-01 02:45:00,,,1900-01-01 03:32:00,1900-01-01 03:33:00,1,True,True,2.0,BEDFDM,Bedford,52.13618568907434,-0.47944232322901875,48.0,49.0
202407048099381,P99381,2024-07-04,Darwin,ASHFDYW,1900-01-01 02:12:00,1900-01-01 02:19:00,,,1900-01-01 03:14:00,1900-01-01 03:15:00,,True,True,7.0,,ASHFDYW,,,56.0,62.0
202407048088559,P88559,2024-07-04,Darwin,EBOU501,1900-01-01 01:56:00,1900-01-01 01:56:00,,,1900-01-01 03:11:00,1900-01-01 03:11:00,,True,True,0.0,,EBOU501,,,75.0,75.0
202407048088559,P88559,2024-07-04,Darwin,EBOUCS,1900-01-01 01:58:00,1900-01-01 02:04:00,,,1900-01-01 03:13:00,1900-01-01 03:14:00,,True,True,6.0,,EBOUCS,,,70.0,75.0
202407047133413,G33413,2024-07-04,Darwin,PRST,1900-01-01 00:37:00,1900-01-01 00:41:00,,,1900-01-01 03:09:00,1900-01-01 03:10:00,RES,True,True,4.0,PRST,Preston,53.756857773077485,-2.7081278044333805,149.0,152.0
202407047513590,K13590,2024-07-04,Darwin,BEDFDM,1900-01-01 01:05:30,1900-01-01 01:07:30,,,1900-01-01 03:27:00,1900-01-01 03:28:00,3,True,True,2.0,BEDFDM,Bedford,52.13618568907434,-0.47944232322901875,140.5,141.5
202407047513590,K13590,2024-07-04,Darwin,WLNGBRO,1900-01-01 01:25:00,1900-01-01 01:27:00,,,1900-01-01 03:38:00,1900-01-01 03:39:00,3,True,True,2.0,WLNGBRO,Wellingborough,52.30378102256156,-0.6766508786563786,132.0,133.0
202407047513590,K13590,2024-07-04,Darwin,KETR,1900-01-01 01:37:00,1900-01-01 01:39:00,,,1900-01-01 03:46:00,1900-01-01 03:47:00,2,True,True,2.0,KETR,Kettering,52.393553333440025,-0.7315622113389392,128.0,129.0
202407047149324,G49324,2024-07-04,Darwin,THBD288,1900-01-01 01:31:00,1900-01-01 01:31:00,,,1900-01-01 03:21:00,1900-01-01 03:21:00,,True,True,0.0,,THBD288,,,110.0,110.0
202407047143283,G43283,2024-07-04,Darwin,GLOSTER,1900-01-01 01:03:00,1900-01-01 01:21:00,,,1900-01-01 03:09:00,1900-01-01 03:10:00,4,True,True,18.0,GLOSTER,Gloucester,51.865556868114204,-2.238487569393147,109.0,126.0
202407047143283,G43283,2024-07-04,Darwin,GLOS444,1900-01-01 01:23:00,1900-01-01 01:26:00,,,1900-01-01 03:12:00,1900-01-01 03:13:00,,True,True,3.0,,GLOS444,,,107.0,109.0
202407047148474,G48474,2024-07-04,Darwin,KNTSHTN,1900-01-01 01:30:30,1900-01-01 01:39:30,,,1900-01-01 03:13:00,1900-01-01 03:14:00,3,True,True,9.0,KNTSHTN,Kentish Town,51.550493204133055,-0.14036494555033927,94.5,102.5
202407047148474,G48474,2024-07-04,Darwin,CRKLWD,1900-01-01 01:45:00,1900-01-01 01:46:00,,,1900-01-01 03:20:00,1900-01-01 03:21:00,2,True,True,1.0,CRKLWD,Cricklewood,51.5584512624468,-0.21267659084976767,95.0,95.0
202407047154179,G54179,2024-07-04,Darwin,MLHB,1900-01-01 03:02:30,1900-01-01 03:03:00,03:03:00,03:03:00,1900-01-01 03:12:00,1900-01-01 03:12:00,4,True,True,0.5,MLHB,Mill Hill Broadway,51.6130910957873,-0.24923967588388818,9.0,9.5
202407047154179,G54179,2024-07-04,Darwin,ELTR,1900-01-01 03:06:30,1900-01-01 03:07:30,03:07:00,03:07:00,1900-01-01 03:16:00,1900-01-01 03:16:00,4,True,True,1.0,ELTR,Elstree & Borehamwood,51.65306766256587,-0.2800814937297041,8.5,9.5
202407047154179,G54179,2024-07-04,Darwin,RADLETT,1900-01-01 03:11:00,1900-01-01 03:11:30,03:11:00,03:11:00,1900-01-01 03:20:00,1900-01-01 03:20:00,4,True,True,0.5,RADLETT,Radlett,51.68518629252201,-0.31724373152153196,8.5,9.0
202407047154179,G54179,2024-07-04,Darwin,STALBCY,1900-01-01 03:17:00,1900-01-01 03:18:30,03:17:00,03:18:00,1900-01-01 03:25:00,1900-01-01 03:26:00,4,True,True,1.5,STALBCY,St Albans City,51.75047146780483,-0.3275382571633064,7.5,8.0
202407047154179,G54179,2024-07-04,Darwin,HRPNDN,1900-01-01 03:24:00,1900-01-01 03:24:30,03:24:00,03:24:00,1900-01-01 03:31:00,1900-01-01 03:32:00,4,True,True,0.5,HRPNDN,Harpenden,51.81464320534835,-0.35148047993733933,7.5,7.0
202407047154179,G54179,2024-07-04,Darwin,LUTOAPY,1900-01-01 03:29:00,1900-01-01 03:30:00,03:29:00,03:30:00,1900-01-01 03:36:00,1900-01-01 03:37:00,4,True,True,1.0,LUTOAPY,Luton Airport Parkway,51.87243587338223,-0.39588096350906565,7.0,7.0
202407047154179,G54179,2024-07-04,Darwin,LUTON,1900-01-01 03:33:00,1900-01-01 03:34:30,03:33:00,03:34:00,1900-01-01 03:39:00,1900-01-01 03:40:00,5,True,True,1.5,LUTON,Luton,51.882303167755396,-0.41404016809500005,5.5,6.0
202407047154179,G54179,2024-07-04,Darwin,LEAGRVE,1900-01-01 03:38:00,1900-01-01 03:38:30,03:38:00,03:38:00,1900-01-01 03:44:00,1900-01-01 03:44:00,4,True,True,0.5,LEAGRVE,Leagrave,51.905157310725386,-0.4585025979419626,5.5,6.0
202407047154179,G54179,2024-07-04,Darwin,HRLG,1900-01-01 03:42:30,1900-01-01 03:43:00,03:43:00,03:43:00,1900-01-01 03:48:00,1900-01-01 03:49:00,4,True,True,0.5,HRLG,Harlington (Beds),51.9620603772902,-0.4956898852912933,6.0,5.5
202407047154179,G54179,2024-07-04,Darwin,FLITWCK,1900-01-01 03:46:30,1900-01-01 03:47:00,03:47:00,03:47:00,1900-01-01 03:52:00,1900-01-01 03:53:00,4,True,True,0.5,FLITWCK,Flitwick,52.003640384691415,-0.49525781675140085,6.0,5.5
202407046743294,C43294,2024-07-04,Darwin,YORK,1900-01-01 02:29:00,1900-01-01 02:33:00,,,1900-01-01 03:09:00,1900-01-01 03:10:00,9,True,True,4.0,YORK,York,53.95796429981637,-1.0931820859124586,37.0,40.0
202407047149515,G49515,2024-07-04,Darwin,CRKLWD,1900-01-01 01:31:00,1900-01-01 01:31:00,,,1900-01-01 03:09:00,1900-01-01 03:09:00,2,True,True,0.0,CRKLWD,Cricklewood,51.5584512624468,-0.21267659084976767,98.0,98.0
202407047149515,G49515,2024-07-04,Darwin,CRKLWRL,1900-01-01 01:40:00,1900-01-01 01:46:00,,,1900-01-01 03:18:00,1900-01-01 03:19:00,,True,True,6.0,,CRKLWRL,,,93.0,98.0
202407047149515,G49515,2024-07-04,Darwin,CRKLREC,1900-01-01 01:50:00,1900-01-01 01:58:00,,,1900-01-01 03:23:00,1900-01-01 03:24:00,,True,True,8.0,,CRKLREC,,,86.0,93.0
202407048099611,P99611,2024-07-04,Darwin,ASHFDYW,1900-01-01 01:03:00,1900-01-01 01:11:00,,,1900-01-01 03:14:00,1900-01-01 03:15:00,,True,True,8.0,,ASHFDYW,,,124.0,131.0
202407047662701,L62701,2024-07-04,Darwin,STAINES,1900-01-01 00:24:00,1900-01-01 00:25:00,,,1900-01-01 03:09:00,1900-01-01 03:10:00,1,True,True,1.0,STAINES,Staines,51.43245370892904,-0.5031644769983019,165.0,165.0
202407047140090,G40090,2024-07-04,Darwin,CATE361,1900-01-01 00:05:00,1900-01-01 00:11:00,,,1900-01-01 03:09:00,1900-01-01 03:10:00,,True,True,6.0,,CATE361,,,179.0,184.0
202407036734858,C34858,2024-07-03,Darwin,NRCH,1900-01-01 00:31:00,1900-01-01 00:42:00,,,1900-01-01 03:09:00,1900-01-01 03:10:00,4,True,True,11.0,NRCH,Norwich,52.627151840604974,1.3068201069628973,148.0,158.0
202407047671871,L71871,2024-07-04,Darwin,CLACTWR,1900-01-01 01:36:00,1900-01-01 01:43:00,,,1900-01-01 03:15:00,1900-01-01 03:16:00,,True,True,7.0,,CLACTWR,,,93.0,99.0
202407048092419,P92419,2024-07-04,Darwin,WLSDHLS,1900-01-01 00:49:00,1900-01-01 00:57:00,,,1900-01-01 03:11:00,1900-01-01 03:12:00,HLG,True,True,8.0,,WLSDHLS,,,135.0,142.0
202407048088274,P88274,2024-07-04,Darwin,STRHUSW,1900-01-01 01:30:30,1900-01-01 01:30:30,,,1900-01-01 03:14:00,1900-01-01 03:14:00,,True,True,0.0,,STRHUSW,,,103.5,103.5
202407048088274,P88274,2024-07-04,Darwin,STRH658,1900-01-01 01:34:30,1900-01-01 01:39:30,,,1900-01-01 03:18:00,1900-01-01 03:19:00,,True,True,5.0,,STRH658,,,99.5,103.5
202407048088274,P88274,2024-07-04,Darwin,STRHUSW,1900-01-01 01:43:30,1900-01-01 01:43:30,,,1900-01-01 03:23:00,1900-01-01 03:23:00,,True,True,0.0,,STRHUSW,,,99.5,99.5
202407047149511,G49511,2024-07-04,Darwin,CRKLWD,1900-01-01 01:12:30,1900-01-01 01:14:00,,,1900-01-01 03:09:00,1900-01-01 03:10:00,2,True,True,1.5,CRKLWD,Cricklewood,51.5584512624468,-0.21267659084976767,116.0,116.5
202407047149511,G49511,2024-07-04,Darwin,CRKLWRL,1900-01-01 01:23:00,1900-01-01 01:28:00,,,1900-01-01 03:19:00,1900-01-01 03:20:00,,True,True,5.0,,CRKLWRL,,,112.0,116.0
202407047149511,G49511,2024-07-04,Darwin,CRKLREC,1900-01-01 01:32:00,1900-01-01 01:40:00,,,1900-01-01 03:24:00,1900-01-01 03:25:00,,True,True,8.0,,CRKLREC,,,105.0,112.0
202407046779913,C79913,2024-07-04,Darwin,LESTER,1900-01-01 00:30:00,1900-01-01 00:32:00,,,1900-01-01 03:09:00,1900-01-01 03:10:00,3,True,True,2.0,LESTER,Leicester,52.63142350094749,-1.1252754475422335,158.0,159.0
202407046779913,C79913,2024-07-04,Darwin,LEST399,1900-01-01 00:34:30,1900-01-01 00:38:30,,,1900-01-01 03:13:00,1900-01-01 03:14:00,,True,True,4.0,,LEST399,,,155.5,158.5
202407046779913,C79913,2024-07-04,Darwin,LESTER,1900-01-01 00:42:30,1900-01-01 00:43:00,,,1900-01-01 03:18:00,1900-01-01 03:18:00,UDS,True,True,0.5,LESTER,Leicester,52.63142350094749,-1.1252754475422335,155.0,155.5
202407036783937,C83937,2024-07-03,Darwin,STFD,1900-01-01 00:03:00,1900-01-01 00:03:30,,,1900-01-01 03:20:00,1900-01-01 03:21:00,5,True,True,0.5,STFD,Stratford (London),51.54189336805473,-0.003396699129234147,197.5,197.0
202407036783937,C83937,2024-07-03,Darwin,SPNY205,1900-01-01 00:07:00,1900-01-01 00:13:30,,,1900-01-01 03:24:00,1900-01-01 03:25:00,,True,True,6.5,,SPNY205,,,191.5,197.0
202407036783937,C83937,2024-07-03,Darwin,PADTLL,1900-01-01 00:30:30,1900-01-01 00:31:00,,,1900-01-01 03:34:00,1900-01-01 03:35:00,B,True,True,0.5,,PADTLL,,,184.0,183.5
202407036783937,C83937,2024-07-03,Darwin,WBRNPKS,1900-01-01 00:33:00,1900-01-01 00:36:00,,,1900-01-01 03:37:00,1900-01-01 03:38:00,3,True,True,3.0,,WBRNPKS,,,182.0,184.0
202407047663860,L63860,2024-07-04,Darwin,WOKI214,1900-01-01 00:27:00,1900-01-01 00:35:00,,,1900-01-01 03:09:00,1900-01-01 03:10:00,,True,True,8.0,,WOKI214,,,155.0,162.0
202407047671506,L71506,2024-07-04,Darwin,CAMB147,1900-01-01 01:49:00,1900-01-01 01:55:00,,,1900-01-01 03:12:00,1900-01-01 03:13:00,,True,True,6.0,,CAMB147,,,78.0,83.0
202407047663860,L63860,2024-07-04,Darwin,WOKI214,1900-01-01 00:27:00,1900-01-01 00:35:00,,,1900-01-01 03:19:00,1900-01-01 03:20:00,,True,True,8.0,,WOKI214,,,165.0,172.0
202407047143283,G43283,2024-07-04,Darwin,GLOSTER,1900-01-01 01:03:00,1900-01-01 01:21:00,,,1900-01-01 03:19:00,1900-01-01 03:20:00,4,True,True,18.0,GLOSTER,Gloucester,51.865556868114204,-2.238487569393147,119.0,136.0
202407047143283,G43283,2024-07-04,Darwin,GLOS444,1900-01-01 01:23:00,1900-01-01 01:26:00,,,1900-01-01 03:22:00,1900-01-01 03:23:00,,True,True,3.0,,GLOS444,,,117.0,119.0
202407047148453,G48453,2024-07-04,Darwin,CRKLWD,1900-01-01 00:53:30,1900-01-01 00:55:00,,,1900-01-01 03:19:00,1900-01-01 03:20:00,2,True,True,1.5,CRKLWD,Cricklewood,51.5584512624468,-0.21267659084976767,145.0,145.5
202407047147847,G47847,2024-07-04,Darwin,LTCEADL,1900-01-01 00:07:00,1900-01-01 00:24:00,,,1900-01-01 03:19:00,1900-01-01 03:20:00,1,True,True,17.0,,LTCEADL,,,176.0,192.0
202407047147847,G47847,2024-07-04,Darwin,LTCEREC,1900-01-01 00:31:00,1900-01-01 00:38:00,,,1900-01-01 03:27:00,1900-01-01 03:28:00,,True,True,7.0,,LTCEREC,,,170.0,176.0
202407047147848,G47848,2024-07-04,Darwin,LTCEADL,1900-01-01 01:07:00,1900-01-01 01:08:00,,,1900-01-01 03:19:00,1900-01-01 03:20:00,1,True,True,1.0,,LTCEADL,,,132.0,132.0
202407047147848,G47848,2024-07-04,Darwin,LTCEREC,1900-01-01 01:15:00,1900-01-01 01:22:00,,,1900-01-01 03:27:00,1900-01-01 03:28:00,,True,True,7.0,,LTCEREC,,,126.0,132.0
202407038089060,P89060,2024-07-03,Darwin,GTWK,1900-01-01 00:36:00,1900-01-01 00:46:00,,,1900-01-01 03:27:00,1900-01-01 03:28:00,,True,True,10.0,GTWK,Gatwick Airport,51.15648901918074,-0.16104149227569897,162.0,171.0
202407038089060,P89060,2024-07-03,Darwin,REDHILL,1900-01-01 00:56:00,1900-01-01 01:03:00,,,1900-01-01 03:37:00,1900-01-01 03:38:00,2,True,True,7.0,REDHILL,Redhill,51.24019941584228,-0.16589991509185212,155.0,161.0
202407038092390,P92390,2024-07-03,Darwin,QPRK,1900-01-01 00:11:00,1900-01-01 00:17:00,,,1900-01-01 03:23:00,1900-01-01 03:24:00,4,True,True,6.0,QPRK,Queens Park (London),51.53396447272617,-0.20498481179665223,187.0,192.0
202407038092390,P92390,2024-07-03,Darwin,WLSDNJL,1900-01-01 00:22:30,1900-01-01 00:28:00,,,1900-01-01 03:27:00,1900-01-01 03:28:00,2,True,True,5.5,WLSDNJL,Willesden Junction Low Level,51.53202614197503,-0.2432682798041903,180.0,184.5
202407046743235,C43235,2024-07-04,Darwin,YORK656,1900-01-01 01:16:30,1900-01-01 01:19:30,,,1900-01-01 03:21:00,1900-01-01 03:22:00,,True,True,3.0,,YORK656,,,122.5,124.5
202407048083259,P83259,2024-07-04,Darwin,HAYMRKT,1900-01-01 01:53:00,1900-01-01 01:53:30,,,1900-01-01 03:22:00,1900-01-01 03:23:00,1,True,True,0.5,HAYMRKT,Haymarket,55.94580631761191,-3.218449357526911,89.5,89.0
202407047148474,G48474,2024-07-04,Darwin,KNTSHTN,1900-01-01 01:30:30,1900-01-01 01:39:30,,,1900-01-01 03:23:00,1900-01-01 03:24:00,3,True,True,9.0,KNTSHTN,Kentish Town,51.550493204133055,-0.14036494555033927,104.5,112.5
202407047148474,G48474,2024-07-04,Darwin,CRKLWD,1900-01-01 01:45:00,1900-01-01 01:46:00,,,1900-01-01 03:30:00,1900-01-01 03:31:00,2,True,True,1.0,CRKLWD,Cricklewood,51.5584512624468,-0.21267659084976767,105.0,105.0
202407048624813,V24813,2024-07-04,Darwin,CHST527,1900-01-01 01:50:30,1900-01-01 01:55:30,,,1900-01-01 03:20:00,1900-01-01 03:21:00,,True,True,5.0,,CHST527,,,85.5,89.5
202407048624813,V24813,2024-07-04,Darwin,CHST,1900-01-01 01:56:30,1900-01-01 01:58:30,,,1900-01-01 03:22:00,1900-01-01 03:23:00,UDG,True,True,2.0,CHST,Chester,53.196693516327784,-2.879593468552215,84.5,85.5
202407047147850,G47850,2024-07-04,Darwin,LTCEADL,1900-01-01 01:41:00,1900-01-01 01:42:00,,,1900-01-01 03:19:00,1900-01-01 03:20:00,1,True,True,1.0,,LTCEADL,,,98.0,98.0
202407047147850,G47850,2024-07-04,Darwin,LTCEREC,1900-01-01 01:49:00,1900-01-01 01:56:00,,,1900-01-01 03:27:00,1900-01-01 03:28:00,,True,True,7.0,,LTCEREC,,,92.0,98.0
202407048099381,P99381,2024-07-04,Darwin,ASHFDYW,1900-01-01 02:12:00,1900-01-01 02:19:00,,,1900-01-01 03:24:00,1900-01-01 03:25:00,,True,True,7.0,,ASHFDYW,,,66.0,72.0
202407048088559,P88559,2024-07-04,Darwin,EBOU501,1900-01-01 01:56:00,1900-01-01 01:56:00,,,1900-01-01 03:21:00,1900-01-01 03:21:00,,True,True,0.0,,EBOU501,,,85.0,85.0
202407048088559,P88559,2024-07-04,Darwin,EBOUCS,1900-01-01 01:58:00,1900-01-01 02:04:00,,,1900-01-01 03:23:00,1900-01-01 03:24:00,,True,True,6.0,,EBOUCS,,,80.0,85.0
